name,address,phone,fax,email,website,latitude,longitude
Ludwig Dippel GmbH,"Marburger Straße 50 , 35279 Neustadt",+49 6692 96010,+49 6692 960120,info@autopark-dippel.de,https://www.volkswagen.de/de/haendler-werkstatt/autopark-ludwig-dippel-neustadt.html,50.85066,9.10598
Autohaus Nidda GmbH,"Eisenried 7 , 63667 Nidda",+49 6043 985700,+49 6043 9857029,info@vw-nidda.de,https://www.volkswagen.de/de/haendler-werkstatt/autohaus-nidda.html,50.417355,9.018575
Autohaus Boese & Born GmbH & Co.KG,"Stephan-Niderehe-Straße 24 , 35037 Marburg",+49 6421 93630,+49 6421 936325,service@boese-und-born.de,https://www.volkswagen.de/de/haendler-werkstatt/autohaus-boese-born-marburg.html,50.793262,8.751138
Auto-Häuser GmbH & Co. KG,"Gießener Straße 9 , 35415 Pohlheim",+49 6403 95950,+49 6403 959522,info@autohaeuser-pohlheim.de,https://www.volkswagen.de/de/haendler-werkstatt/auto-haeuser-pohlheim.html,50.533836,8.708401
Autohaus Brass Vertriebs GmbH & Co. KG,"Frankfurter Straße 171 , 35392 Giessen",+49 641 92300,+49 641 923000,info.giessen@brass-gruppe.de,https://www.volkswagen.de/de/haendler-werkstatt/autohaus-brass-giessen.html,50.565647,8.654556
Autohaus Feldmann GmbH & Co. KG,"Burgstraße 2 , 34582 Borken",+49 5682 2316,+49 5682 6138,kontakt@autohaus-feldmann.de,https://www.volkswagen.de/de/haendler-werkstatt/autohaus-feldmann-borken.html,51.02282,9.25617
Autohaus Hoch GmbH & Co.,"Bahnhofstraße 16-20 , 35075 Gladenbach",+49 6462 91860,+49 6462 5830,info@autohaus-hoch.de,https://www.volkswagen.de/de/haendler-werkstatt/autohaus-hoch-gladenbach.html,50.766483,8.58346
Autohaus Salzmann GmbH & Co.KG,"An der Haune 2 , 36251 Bad Hersfeld",+49 6621 50540,+49 6621 505450,info@salzmann-automobile.de,https://www.volkswagen.de/de/haendler-werkstatt/autohaus-salzmann-bad-hersfeld.html,50.859932,9.721734
Auto-Bach GmbH,"Hermannsteiner Straße 40-44 , 35576 Wetzlar",+49 6441 93730,+49 6441 937353,info-wetzlar@autobach.de,https://www.volkswagen.de/de/haendler-werkstatt/auto-bach-wetzlar.html,50.56914,8.49893
Autohaus Staaf GmbH,"Friedberger Straße 91-93 , 61130 Nidderau",+49 6187 20110,+49 6187 201144,info@staaf.de,https://www.volkswagen.de/de/haendler-werkstatt/autohaus-staaf-nidderau.html,50.24168,8.85952
Autohaus Range GmbH,"Wolfhager Straße 7 , 34560 Fritzlar",+49 5622 99599,+49 5622 995900,info@autohaus-range.de,https://www.volkswagen.de/de/haendler-werkstatt/autohaus-range-fritzlar.html,51.139046,9.27383
Autohaus Romeis GmbH,"Berliner Straße 21 , 36129 Gersfeld",+49 6654 96200,+49 6654 962022,matthias.romeis@de630530.vapn.de,https://www.volkswagen.de/de/haendler-werkstatt/autohaus-romeis-gersfeld.html,50.45143,9.91209
Volkswagen Automobile Frankfurt GmbH,"Donaustraße 32 , 63452 Hanau",+49 6181 90095000,+49 6181 90095918,info@volkswagen-frankfurt.de,https://www.volkswagen.de/de/haendler-werkstatt/volkswagen-automobile-hanau.html,50.15205,8.93345
Autohaus Bredler GmbH & Co. KG,"Friedberger Straße 114 , 61118 Bad Vilbel",+49 6101 2265,+49 6101 7688,info@bredler.de,https://www.volkswagen.de/de/haendler-werkstatt/autohaus-bredler-bad-vilbel.html,50.19087,8.74261
Autohaus Fischer-Schädler GmbH,"Zeppelinstraße 10-12, 13-15 , 61118 Bad Vilbel",+49 6101 52670,+49 6101 526767,mail@fischer-schaedler.de,https://www.volkswagen.de/de/haendler-werkstatt/autohaus-fischer-schaedler-bad-vilbel.html,50.19314,8.72628
Autohaus Am Steinheimer Tor GmbH,"Am Steinheimer Tor 4 , 63450 Hanau",+49 6181 428280,+49 6181 4282829,info@vw-hanau.de,https://www.volkswagen.de/de/haendler-werkstatt/autohaus-am-steinheimer-tor-hanau.html,50.12892,8.91486
Auto Bach GmbH,"Urseler Straße 61 , 61348 Bad Homburg",+49 6172 30870,+49 6172 308740,info-homburg@autobach.de,https://www.volkswagen.de/de/haendler-werkstatt/auto-bach-bad-homburg.html,50.21933,8.607577
Autohaus Koch GmbH,"An den drei Hasen 3 , 61440 Oberursel",+49 6171 59000,+49 6171 55055,kontakt@autohauskoch.com,https://www.volkswagen.de/de/haendler-werkstatt/autohaus-koch-oberursel.html,50.203117,8.595599
Volkswagen Automobile Frankfurt  GmbH,"Hügelstraße 21 , 60435 Frankfurt",+49 69 8700167000,+49 69 8700167960,info@volkswagen-frankfurt.de,https://www.volkswagen.de/de/haendler-werkstatt/volkswagen-automobile-frankfurt-eckenheim.html,50.14955,8.677497
Hoppmann Automobil GmbH,"Erlachstraße 3 , 35708 Haiger",+49 2773 7107570,+49 2773 71075725,info-haiger@hoppmann-autowelt.de,https://www.volkswagen.de/de/haendler-werkstatt/hoppmann-automobil-haiger.html,50.745255,8.202481
Günter Hegel GmbH,"Oberstraße 32 , 59964 Medebach",+49 2982 8553,+49 2982 657,info@auto-hegel.de,https://www.volkswagen.de/de/haendler-werkstatt/autohaus-guenter-hegel-medebach.html,51.20066,8.7004
Günther Autos & Service GmbH,"Limburgstraße 39 , 57319 Bad Berleburg",+49 2751 92590,+49 2751 925920,cg@guenther-autos.de,https://www.volkswagen.de/de/haendler-werkstatt/guenther-autos-service-bad-berleburg.html,51.03767,8.38499
Autohaus Leiss Frankfurt GmbH,"Alt-Rödelheim 2-4 , 60489 Frankfurt",+49 69 7891090,+49 69 78910999,info@autohaus-leiss.de,https://www.volkswagen.de/de/haendler-werkstatt/autohaus-leiss-frankfurt.html,50.12428,8.61271
Auto Klein GmbH & Co. KG,"Westerbachstraße 234-240 , 65936 Frankfurt",+49 69 3410110,+49 69 341424,info@autoklein.de,https://www.volkswagen.de/de/haendler-werkstatt/auto-klein-frankfurt.html,50.124027,8.5757
Autohaus Brass Vertriebs GmbH & Co. KG Zweigndl. Autohaus Brass Rodgau,"Gutenbergstraße 11 , 63110 Rodgau",+49 6106 2900,+49 6106 290199,info.rodgau@brass-gruppe.de,https://www.volkswagen.de/de/haendler-werkstatt/autohaus-brass-rodgau.html,50.017673,8.900677
Scherer GmbH & Co. KG,"Goldbacher Straße 85 , 63741 Aschaffenburg",+49 6021 459060,+49 6021 4590612,ServiceInfo.ABV@scherer-gruppe.de,https://www.volkswagen.de/de/haendler-werkstatt/autohaus-scherer-aschaffenburg.html,49.98741,9.16667
Robert Kunzmann GmbH & Co. KG,"Auhofstraße 29 , 63741 Aschaffenburg",+49 6021 36111720,+49 6021 36111105,info@kunzmann.de,https://www.volkswagen.de/de/haendler-werkstatt/autohaus-kunzmann-aschaffenburg.html,49.98428,9.15779
Autohaus Gemünden GmbH,"Weißensteinstraße 33 , 97737 Gemünden",+49 9351 97270,+49 9351 972799,vw-gemuenden@mh-autohaus.de,https://www.volkswagen.de/de/haendler-werkstatt/autohaus-gemuenden.html,50.06456,9.68633
Autohaus Brass Vertriebs GmbH & Co. KG Zweigndl. Autohaus Brass Dietzenbach,"Paul-Brass-Straße 10 , 63128 Dietzenbach",+49 6074 8010,+49 6074 801100,info.dietzenbach@brass-gruppe.de,https://www.volkswagen.de/de/haendler-werkstatt/autohaus-brass-dietzenbach.html,50.00883,8.79092
Autohaus Hessenkassel GmbH & Co. Vertriebs - KG,"Leipziger Straße 156 , 34123 Kassel",+49 561 50060,+49 561 5006109,hessenkassel@glinicke.dealerdesk.de,https://www.volkswagen.de/de/haendler-werkstatt/autohaus-hessenkassel-kassel.html,51.304157,9.529017
Autokaufhaus Rhön GmbH,"Paulinenstraße 1b , 97645 Ostheim",+49 9777 91220,+49 9777 912241,info@autokaufhausrhoen.de,https://www.volkswagen.de/de/haendler-werkstatt/autokaufhaus-rhoen-ostheim.html,50.45897,10.23831
Autohaus Otto Horn Inh. Heike Horn e.K.,"Hainbuchenstraße 1 , 65597 Hünfelden",+49 6438 2224,,info@autohaus-horn.de,https://www.volkswagen.de/de/haendler-werkstatt/autohaus-otto-horn-huenfelden.html,50.30956,8.16105
Autocenter Andrè Mühlenbruch GmbH,"In der Au 26 , 57290 Neunkirchen",+49 2735 78480,+49 2735 774025,mail@ac-muehlenbruch.de,https://www.volkswagen.de/de/haendler-werkstatt/autocenter-andre-muehlenbruch-neunkirchen.html,50.78499,8.01104
Göthling & Kaufmann Automobile GmbH,"Rheingaustraße 130 , 65719 Hofheim",+49 6192 20750,+49 6192 207563,vw.hofheim@goethling-kaufmann.de,https://www.volkswagen.de/de/haendler-werkstatt/goethling-kaufmann-automobile-hofheim.html,50.06651,8.43598
Autohaus Stöber Eschwege GmbH & Co. KG,"Hessenring 2 , 37269 Eschwege",+49 5651 800990,+49 5651 8009910,esw@glinicke.de,https://www.volkswagen.de/de/haendler-werkstatt/autohaus-stoeber-eschwege.html,51.1773,10.03024
Walter Schneider GmbH & Co. KG,"Zur Brüche 2 , 57223 Kreuztal",+49 2732 58360,+49 2732 27539,team-ferndorf@walter-schneider.de,https://www.volkswagen.de/de/haendler-werkstatt/autohaus-walter-schneider-kreuztal.html,50.959324,8.024022
Auto Brucker GmbH,"Jerusalemer Straße 1 , 98617 Meiningen",+49 3693 71450,+49 3693 714533,meiningen@auto-brucker.de,https://www.volkswagen.de/de/haendler-werkstatt/auto-brucker-meiningen.html,50.589073,10.412426
Autohaus Luckey GmbH,"Bundesstraße 60 , 34431 Marsberg",+49 2991 96000,+49 2991 960060,info.autohaus@ahluckey.de,https://www.volkswagen.de/de/haendler-werkstatt/autohaus-luckey-marsberg.html,51.41003,8.74963
Menke GmbH,"Hauptstraße 120 , 59939 Olsberg",+49 2962 97790,+49 2962 977990,info@menke-olsberg.de,https://www.volkswagen.de/de/haendler-werkstatt/autohaus-menke-olsberg.html,51.35395,8.484115
Egon Baumhoff GmbH & Co. KG,"Hagener Straße 68 , 57368 Lennestadt",+49 2723 96670,,info@autohaus-baumhoff.de,https://www.volkswagen.de/de/haendler-werkstatt/egon-baumhoff-lennestadt.html,51.109425,8.066724
Biederbick GmbH & Co.KG,"Almerfeldweg 39 , 59929 Brilon",+49 2961 972222,+49 2961 972216,info@biederbick.de,https://www.volkswagen.de/de/haendler-werkstatt/autohaus-biederbick-brilon.html,51.405766,8.581462
MAX-WEISS Auto GmbH,"Am Schindberg 2 , 65474 Bischofsheim",+49 6144 334180,+49 6144 3341866,info@max-weiss.com,https://www.volkswagen.de/de/haendler-werkstatt/autohaus-max-weiss-bischofsheim.html,49.97608,8.37662
Treffpunkt Thierolf GmbH & Co. KG,"Aschaffenburger Straße 71 , 64739 Höchst",+49 6163 93330,+49 6163 933349,treffpunkt@thierolf.de,https://www.volkswagen.de/de/haendler-werkstatt/treffpunkt-thierolf-hoechst.html,49.80414,8.99999
Autohaus J. Wiest & Söhne Gesellschaft mit beschränkter Haftung,"Hilpertstraße 6 , 64295 Darmstadt",+49 6151 8640,+49 6151 864400,volkswagen-homepage-da@wiest-autohaeuser.dealerdesk.de,https://www.volkswagen.de/de/haendler-werkstatt/autohaus-j-wiest-soehne-darmstadt.html,49.862778,8.630486
Ehrhardt AG,"Stützenbergstraße 1 , 97225 Zellingen",+49 9364 8176090,+49 9364 81760917,zellingen@ah-ehrhardt.com,https://www.volkswagen.de/de/haendler-werkstatt/ehrhardt-ag-zellingen.html,49.89095,9.82571
Autohaus Stefan Semler GmbH & Co. KG,"Ottostraße 16-18 , 64347 Griesheim",+49 6155 83800,+49 6155 838098,info@autohaus-semler.de,https://www.volkswagen.de/de/haendler-werkstatt/autohaus-stefan-semler-griesheim.html,49.869812,8.559929
Friedrich Hoffmann GmbH & Co. KG,"Warsteiner Straße 50 , 59872 Meschede",+49 291 99660,+49 291 996699,info@friedrich-hoffmann.de,https://www.volkswagen.de/de/haendler-werkstatt/autohaus-friedrich-hoffmann-meschede.html,51.35384,8.28186
D. Pullmann e.K.,"Pfungstädter Straße 65 , 64297 Darmstadt",+49 6151 54041,+49 6151 591305,info@autohaus-pullmann.de,https://www.volkswagen.de/de/haendler-werkstatt/autohaus-pullmann-darmstadt.html,49.81636,8.63625
Autohaus Hölzer GmbH,"Thüringer Straße 23 , 97631 Bad Königshofen",+49 9761 91500,+49 9761 915028,service@autohaus-hoelzer.de,https://www.volkswagen.de/de/haendler-werkstatt/autohaus-hoelzer-bad-koenigshofen.html,50.302414,10.474383
Autohaus Spindler Kreuzwertheim GmbH & Co. KG,"Haslocher Straße 23 , 97892 Kreuzwertheim",+49 9342 92500,+49 9342 925015,kreuzwertheim@spindler-gruppe.de,https://www.volkswagen.de/de/haendler-werkstatt/autohaus-spindler-kreuzwertheim.html,49.76977,9.5132
Autohaus Albertsmeyer Mühlhausen GmbH,"Mühlhäuser Landstraße 4 , 99974 Mühlhausen",+49 36026 9500,+49 36026 95050,info@albertsmeyer.com,https://www.volkswagen.de/de/haendler-werkstatt/autohaus-albertsmeyer-rodeberg-ot-eigenrieden.html,51.21099,10.330422
Autohaus Vögler GmbH,"Zeller Gewerbezentrum 22 , 64732 Bad König",+49 6063 95950,+49 6063 959533,info@voegler.de,https://www.volkswagen.de/de/haendler-werkstatt/autohaus-voegler-bad-koenig.html,49.72447,8.994035
Autohaus Keller GmbH,"Scheffelstraße 1 , 97209 Veitshöchheim",+49 931 900820,+49 931 9008250,info@autohaus-keller.de,https://www.volkswagen.de/de/haendler-werkstatt/autohaus-keller-veitshoechheim.html,49.82472,9.87908
Erwin Pfister GmbH & Co. KG,"Heidenfelder Straße 9 , 97525 Schwebheim",+49 9723 91550,+49 9723 5292,info@autohaus-pfister.de,https://www.volkswagen.de/de/haendler-werkstatt/autohaus-pfister-schwebheim.html,49.984394,10.243418
Auto-Wünsch KG,"Pariser Straße 144 , 55268 Nieder-Olm",+49 6136 75670,+49 6136 756721,info@auto-wuensch.de,https://www.volkswagen.de/de/haendler-werkstatt/auto-wuensch-nieder-olm.html,49.90594,8.19513
Autohaus Spies GmbH & Co. KG,"Königsberger Straße 45 , 56269 Dierdorf",+49 2689 9595110,+49 2689 95951117,info@autohaus-spies.com,https://www.volkswagen.de/de/haendler-werkstatt/autohaus-spies-dierdorf.html,50.54523,7.6358
Autohaus Iffland GmbH,"Mühlhäuser Straße 54 , 37351 Dingelstädt",+49 36075 30688,+49 36075 30689,info@autohaus-iffland.de,https://www.volkswagen.de/de/haendler-werkstatt/autohaus-daniel-iffland-dingelstaedt.html,51.30882,10.32435
Fahrzeughaus Müller GmbH,"Themarer Straße 5 , 98553 Schleusingen",+49 36841 3950,+49 36841 39539,info@fahrzeughaus-mueller.de,https://www.volkswagen.de/de/haendler-werkstatt/fahrzeughaus-mueller-schleusingen.html,50.50215,10.73814
AHG GmbH & Co. KG,"Weimarer Straße 71-75 , 99867 Gotha",+49 3621 45040,+49 3621 4504118,info@ahg-online.de,https://www.volkswagen.de/de/haendler-werkstatt/ahg-autohaus-gotha.html,50.945267,10.734936
AUTOHAUS GLINICKE GMBH & CO. VERTRIEBS KG,"Mühlhäuser Landstraße 15 , 99947 Bad Langensalza",+49 3603 86100,+49 3603 861020,info@glinicke.de,https://www.volkswagen.de/de/haendler-werkstatt/autohaus-glinicke-bad-langensalza.html,51.112022,10.639776
Löhr Automobile GmbH,"Dieter-Trennheuser-Straße 8 , 56170 Bendorf",+49 2622 94440,,info.lbe@loehrgruppe.de,https://www.volkswagen.de/de/haendler-werkstatt/loehr-automobile-bendorf.html,50.427254,7.5648713
Friedrich Hoffmann GmbH & Co.,"Niedereimerfeld 37-39 , 59823 Arnsberg-Niedereimer",+49 2932 890180,+49 2932 89018769,info@friedrich-hoffmann.de,https://www.volkswagen.de/de/haendler-werkstatt/autohaus-friedrich-hoffmann-arnsberg.html,51.42264,8.03453
Autohaus Levermann GmbH,"Hönnetalstraße 64a-66 , 58802 Balve",+49 2375 92800,+49 2375 928030,info@levermann.de,https://www.volkswagen.de/de/haendler-werkstatt/autohaus-levermann-balve.html,51.33722,7.86957
Autohaus Scherhag GmbH,"In der Laach 76 , 56072 Koblenz",+49 261 404080,+49 261 4040860,info@scherhag.de,https://www.volkswagen.de/de/haendler-werkstatt/autohaus-scherhag-koblenz.html,50.349854,7.549772
Auto Schmidt GmbH,"Unten in der Aab 3 , 56154 Boppard",+49 6742 60710,+49 6742 607155,info@auto-schmidt-boppard.de,https://www.volkswagen.de/de/haendler-werkstatt/auto-schmidt-boppard.html,50.20993,7.62576
Autohaus Albertsmeyer GmbH & Co. KG,"Am Stadion 1-2 , 37339 Worbis",+49 36074 3830,+49 36074 38321,info.wbs@albertsmeyer.com,https://www.volkswagen.de/de/haendler-werkstatt/autohaus-albertsmeyer-worbis.html,51.41997,10.36846
Autohaus Abicht GmbH,"Industriestraße 33-35 , 37115 Duderstadt",+49 5527 8400,+49 5527 840123,info@autohaus-abicht.de,https://www.volkswagen.de/de/haendler-werkstatt/autohaus-abicht-duderstadt.html,51.508564,10.250339
Tiemeyer automobile GmbH & Co. KG,"Nottebohmstraße 2 , 58511 Lüdenscheid",+49 2351 87440934,+49 2351 917765,info.auidiluedenscheid@tiemeyer.de,https://www.volkswagen.de/de/haendler-werkstatt/tiemeyer-automobile-service-luedenscheid.html,51.21663,7.6541
Autohaus Creusen + Scherer GmbH & Co. KG,"Albiger Straße 4 , 55232 Alzey",+49 6731 88820,+49 6731 888210,ServiceInfo.CRA@scherer-gruppe.de,https://www.volkswagen.de/de/haendler-werkstatt/autohaus-creusen-scherer-alzey.html,49.75159,8.11839
Autohaus Sand am Main Gelder & Sorg GmbH,"Zeiler Straße 56 , 97522 Sand am Main",+49 9524 82250,+49 9524 301391,info-sand@gelderundsorg.de,https://www.volkswagen.de/de/haendler-werkstatt/autohaus-gelder-sorg-sand-am-main.html,49.99391,10.58968
RK Autowelt Rinke & Knipps GmbH,"Thomätor 12 , 59494 Soest",+49 2921 3653-0,+49 2921 3653-53,verkauf.soest@rk-autowelt.eu,https://www.volkswagen.de/de/haendler-werkstatt/rk-autowelt-rinke-knipps-soest.html,51.570282,8.119398
Autohaus Spindler Kitzingen GmbH & Co. KG,"Mainstraße 45 , 97318 Kitzingen",+49 9321 30081000,+49 9321 30081101,kitzingen@spindler-gruppe.de,https://www.volkswagen.de/de/haendler-werkstatt/autohaus-spindler-kitzingen.html,49.72258,10.16312
Rauch Partner der Wiest Autohäuser GmbH,"Bürstädter Straße 112 , 68623 Lampertheim",+49 6206 94380,+49 6206 943838,info@autohaus-rauch.de,https://www.volkswagen.de/de/haendler-werkstatt/rauch-partner-der-wiest-autohaeuser-lampertheim.html,49.606544,8.46626
Autohaus Löven GmbH,"Westerwaldstraße 157-159 , 53773 Hennef (Sieg)",+49 2248 91560,+49 2248 915629,info@autohausloeven.de,https://www.volkswagen.de/de/haendler-werkstatt/autohaus-loeven-hennef.html,50.73179,7.36769
Seibert GmbH & Co. KG,"Albaxer Straße 60 , 37671 Höxter",+49 5271 97320,+49 5271 973240,hoexter@autohaus-seibert.de,https://www.volkswagen.de/de/haendler-werkstatt/autohaus-seibert-hoexter.html,51.78619,9.38763
Auto Meyer GmbH & Co. KG,"Uffenheimer Straße 18 , 97199 Ochsenfurt",+49 9331 87290,+49 9331 7701,info@automeyer-ochsenfurt.de,https://www.volkswagen.de/de/haendler-werkstatt/auto-meyer-ochsenfurt.html,49.660465,10.071678
Dachwiger Autohaus GmbH,"Lange Straße 60 , 99100 Dachwig",+49 36206 2430,+49 36206 24333,info@dachwiger-autohaus.de,https://www.volkswagen.de/de/haendler-werkstatt/dachwiger-autohaus.html,51.07821,10.86416
Autohaus Herschel GmbH,"Bahnhofstraße 5 , 37434 Rhumspringe",+49 5529 96260,+49 5529 962632,info@autohaus-herschel.de,https://www.volkswagen.de/de/haendler-werkstatt/autohaus-herschel-rhumspringe.html,51.57821,10.294557
Gelder & Sorg GmbH & Co. KG,"Bahnhofstraße 41 , 96106 Ebern",+49 9531 92280,+49 9531 8818,info-sorg@gelderundsorg.de,https://www.volkswagen.de/de/haendler-werkstatt/autohaus-gelder-sorg-ebern.html,50.1044,10.788
RK Autowelt Werl GmbH,"Soester Straße 50 , 59457 Werl",+49 2922 877990,+49 2922 8779920,info.werl@rk-autowelt.de,https://www.volkswagen.de/de/haendler-werkstatt/rk-autowelt-werl.html,51.549465,7.933953
Autohaus Korth GmbH,"Herresbacher Straße 51 , 53639 Königswinter",+49 2244 3071,+49 2244 81049,info@autohaus-korth.de,https://www.volkswagen.de/de/haendler-werkstatt/autohaus-korth-koenigswinter.html,50.70634,7.28442
Rudolf Vatterott GmbH,"Bülte 9-11 , 37603 Holzminden",+49 5531 93520,+49 5531 935299,holzminden@autohaus-vatterott.de,https://www.volkswagen.de/de/haendler-werkstatt/autohaus-vatterott-holzminden.html,51.84315,9.462221
Volkswagen Economy Service Konrad,"Eisenbahnstraße 18 - 19 , 53489 Sinzig",02642-906350,02642-9063528,info@ah-konrad.de,https://www.volkswagen.de/de/haendler-werkstatt/autohaus-konrad-remagen.html,50.54115,7.26329
Auto & Service Lohre GmbH,"Höxterstraße 44 , 32839 Steinheim",+49 5233 3830200,+49 5233 38302050,a.schroeder@aslohre.de,https://www.volkswagen.de/de/haendler-werkstatt/auto-service-lohre-steinheim.html,51.86685,9.09943
Autohaus Wilhelm Nielsen GmbH & Co. KG,"Bischheimer Str. 11 , 67292 Kirchheimbolanden",06352-4001-0,06352-4001-99,service@autohaus-nielsen.de,https://www.volkswagen.de/de/haendler-werkstatt/autohaus-wilhelm-nielsen-kirchheimbolanden.html,49.6695,8.019885
Glinicke automobiles Erfurt GmbH,"Vollbrachtstraße 14 , 99086 Erfurt",+49 361 740800,+49 361 7408080,,https://www.volkswagen.de/de/haendler-werkstatt/glinicke-automobiles-erfurt.html,51.004482,11.025331
Autohaus Gretenkort GmbH & Co.KG,"Buchenstraße 15 , 59514 Welver",+49 2384 822,+49 2384 5942,service@autohaus-gretenkort.de,https://www.volkswagen.de/de/haendler-werkstatt/autohaus-gretenkort-welver.html,51.62532,7.95687
Automobilgruppe Harz-Leine GmbH,"Altendorfer Tor 21 + 26 , 37574 Einbeck",05561 7909-0,,info@harz-leine.de,https://www.volkswagen.de/de/haendler-werkstatt/autohaus-huebener-einbeck.html,51.81414,9.87964
Richard Stein GmbH & Co. KG,"Luisenstraße 92 - 98 , 53721 Siegburg",+49 2241 17540,+49 2241 175422,info@steingruppe.de,https://www.volkswagen.de/de/haendler-werkstatt/autohaus-g-rudolf-seiler-siegburg.html,50.80786,7.19374
Autohaus Hoff GmbH & Co. KG,"Einsteinstraße 17 , 53757 Sankt Augustin",+49 2241 12000,+49 2241 120055,info@ah-hoff.de,https://www.volkswagen.de/de/haendler-werkstatt/autohaus-hoff-service-sankt-augustin.html,50.79015,7.18281
ARG-Auto-Rheinland-GmbH,"Godesberger Straße 40 - 80  , 53175  Bonn",0228 / 385-20,+49 228 38567,VW@ARG.de,https://www.volkswagen.de/de/haendler-werkstatt/arg-auto-rheinland-bonn.html,50.694294,7.142418
Autohaus Müller GmbH,"Konrad-Adenauer-Ring 24 , 58135 Hagen",+49 2331 48130,+49 2331 481321,Stephan.Krautwurst@autohaus-vw-mueller.de,https://www.volkswagen.de/de/haendler-werkstatt/autohaus-mueller-hagen.html,51.34982,7.44594
Kurt Stricker GmbH & Co. KG,"Lise-Meitner-Straße 15 , 32760 Detmold",+49 5234 82330,+49 5234 823333,info@autohaus-stricker.de,https://www.volkswagen.de/de/haendler-werkstatt/autohaus-stricker-detmold.html,51.93294,8.92037
Autohaus Eyßelein GmbH & Co. KG,"Würzburger Straße 36 , 96152 Burghaslach",+49 9552 92290,+49 9552 922960,Auto@Eysselein.de,https://www.volkswagen.de/de/haendler-werkstatt/autohaus-eysselein-burghaslach.html,49.73316,10.59478
Schröder Team Verl GmbH & Co. KG,"Nickelstraße 6 , 33415 Verl",+49 5246 92880,+49 5246 928876,info-verl@schroeder-team.de,https://www.volkswagen.de/de/haendler-werkstatt/schroeder-team-verl.html,51.87512,8.456996
Gottfried Schultz Vertrieb GmbH & Co. KG,"Weststraße 1 , 58089 Hagen",+49 2331 309100,+49 2331 309111,info_41@gottfried-schultz.de,https://www.volkswagen.de/de/haendler-werkstatt/gottfried-schultz-vertrieb-hagen.html,51.387493,7.443639
G & S Automobile GmbH,"Grünewaldstraße 2 , 96215 Lichtenfels",+49 9571 755350,,info-lichtenfels@gelderundsorg.de,https://www.volkswagen.de/de/haendler-werkstatt/autohaus-gelder-sorg-service-lichtenfels.html,50.13665,11.06184
Karl Thiel GmbH & Co. KG,"Karl-Thiel-Straße 1 , 33378 Rheda-Wiedenbrück",+49 5242 59050,+49 5242 590549,rheda-wiedenbrueck@thiel-gruppe.de,https://www.volkswagen.de/de/haendler-werkstatt/karl-thiel-rheda-wiedenbrueck.html,51.85915,8.314011
Autohaus Albertsmeyer Nordhausen GmbH & Co. KG,"Helmestraße 111 , 99734 Nordhausen",+49 3631 61800,+49 3631 618030,info@albertsmeyer.com,https://www.volkswagen.de/de/haendler-werkstatt/autohaus-albertsmeyer-nordhausen.html,51.47686,10.80823
Tepass Gevelsberg GmbH + Co. KG,"Hagener Straße 113 , 58285 Gevelsberg",+49 2332 969600,+49 2332 969654,gevelsberg@ah-tepass.de,https://www.volkswagen.de/de/haendler-werkstatt/tepass-gevelsberg.html,51.32535,7.35284
Autohaus Henzel Mutterstadt GmbH,"An der Fohlenweide 3 , 67112 Mutterstadt",+49 6234 92620,+49 6234 926270,info@henzel-automobile.de,https://www.volkswagen.de/de/haendler-werkstatt/autohaus-henzel-mutterstadt.html,49.42702,8.360294
Auto-Scholz AHG GmbH & Co. KG,"Kronacher Straße 38 + 51 , 96052 Bamberg",+49 951 9333333,+49 951 9333335,dialog.vw@auto-scholz.de,https://www.volkswagen.de/de/haendler-werkstatt/volkswagen-zentrum-bamberg.html,49.91853,10.90226
Tepass Schwelm GmbH + Co. KG,"Berliner Straße 60 - 68 , 58332 Schwelm",+49 2336 879700,+49 2336 8797061,schwelm@ah-tepass.de,https://www.volkswagen.de/de/haendler-werkstatt/tepass-schwelm.html,51.29475,7.29689
Autohaus Lecki e.K.,"Felicitasstraße 3 , 44263 Dortmund",+49 231 436080,+49 231 421955,autohaus.lecki@t-online.de,,51.48336,7.4871
Auto-Stern GmbH,"Gottlieb-Daimler-Straße 1 , 69181 Leimen",+49 6224 71081,+49 6224 72929,info@auto-stern.de,https://www.volkswagen.de/de/haendler-werkstatt/auto-stern-leimen.html,49.3451,8.67892
Auto-Köhler GmbH & Co. KG,"Schlachthausstraße 6a , 67098 Bad Dürkheim",+49 6322 979910,+49 6322 9799199,info@autokoehler.de,https://www.volkswagen.de/de/haendler-werkstatt/auto-koehler-bad-duerkheim.html,49.46237,8.16472
Tepass Wetter GmbH,"Oberwengerner Straße 170 , 58300 Wetter",+49 2335 976666,+49 2335 976667,wetter@ah-tepass.de,https://www.volkswagen.de/de/haendler-werkstatt/tepass-wetter.html,51.39237,7.36084
Löhr Automobile Vertriebs GmbH,"Bergerwiesenstraße 4 , 53340 Meckenheim",+49 2225 88970,+49 2225 8897599,vw.ahk@loehrgruppe.de,https://www.volkswagen.de/de/haendler-werkstatt/loehr-automobile-meckenheim.html,50.63726,7.0200458
Tepass Wuppertal GmbH,"Otto-Hahn-Straße 5 , 42369 Wuppertal",+49 202 246460,+49 202 463059,wuppertal@ah-tepass.de,https://www.volkswagen.de/de/haendler-werkstatt/tepass-wuppertal.html,51.23409,7.21353
RK Autowelt Ennigerloh GmbH,"Neubeckumer Straße 150 , 59320 Ennigerloh",+49 2525 93100,+49 2525 931030,ennigerloh@rk-autowelt.de,https://www.volkswagen.de/de/haendler-werkstatt/rk-autowelt-ennigerloh.html,51.81726,8.02441
Volkswagen Economy Service Mulfingen,"Ailringer Str. 27 , 74673 Mulfingen",07938 / 993945-0,07938 / 9939-888,vw-mul@koch-autogruppe.de,http://www.volkswagen-autohaus-koch-kuenzelsau.de/,49.34064,9.79908
Autohaus Stegelmann GmbH & Co. KG,"Stegelmannstraße 1 , 32657 Lemgo",+49 5261 25970,+49 5261 2597177,info@stegelmann.de,https://www.volkswagen.de/de/haendler-werkstatt/autohaus-stegelmann-lemgo.html,52.0208,8.87665
Alfred Hofmann GmbH,"Carl-Zeiss-Straße 4 , 69190 Walldorf",+49 6227 86480,+49 6227 864848,info@alfred-hofmann.de,https://www.volkswagen.de/de/haendler-werkstatt/autohaus-alfred-hofmann-walldorf.html,49.305027,8.632676
Autocenter Gaus GmbH & Co. KG,"Dingerdisser Straße 1 , 33699 Bielefeld",+49 521 5575655,+49 521 55756549,info@autocenter-gaus.de,https://www.volkswagen.de/de/haendler-werkstatt/autocenter-gaus-bielefeld.html,52.006317,8.613678
Autozentrum Blankenhain GmbH,"Waldecker Str.9 , 99444 Blankenhain",03645961800,036459618028,eyk.necke@az-blankenhain.de,https://www.volkswagen.de/de/haendler-werkstatt/autozentrum-blankenhain.html,50.8572,11.34944
Auto Hofmann Walldorf GmbH,"Altrottstraße 55 , 69190 Walldorf",+49 6227 839880,+49 6227 8398829,info@auto-hofmann.de,https://www.volkswagen.de/de/haendler-werkstatt/auto-hofmann-walldorf.html,49.29206,8.6524
Autohaus Heich GmbH,"Am Wartenberg 20 - 22 , 55624 Rhaunen",+49 6544 652,+49 6544 9390,mario.heich@autohaus-heich.de,https://www.volkswagen.de/de/haendler-werkstatt/autohaus-heich-rhaunen.html,49.86594,7.34455
Auto Zeilinger GmbH,"Am Baumgarten 3 + 7 , 91463 Dietersheim",+49 9161 88750,+49 9161 887515,info@auto-zeilinger.de,https://www.volkswagen.de/de/haendler-werkstatt/auto-zeilinger-dietersheim.html,49.55846,10.54195
Gövert GmbH,"Goethestraße 15 , 44534 Lünen",+49 2306 757770,+49 2306 7577729,info@goevert.de,https://www.volkswagen.de/de/haendler-werkstatt/autohaus-goevert-luenen.html,51.62061,7.53045
Autohaus Jacob Fleischhauer GmbH & Co. KG,"Raderberggürtel 31 , 50968 Köln",+49 221 376830,+49 221 3768323,verkauf-vw-koeln@fleischhauer.com,https://www.volkswagen.de/de/haendler-werkstatt/autohaus-jacob-fleischhauer-koeln-raderberg.html,50.904045,6.962402
Kogelheide GmbH,"Wittener Straße 106 , 58456 Witten",+49 2302 970200,+49 2302 970208,kogelheide@kogelheide.de,https://www.volkswagen.de/de/haendler-werkstatt/kogelheide-werkstatt-service-witten.html,51.41735,7.2707047
Autohaus Armbrust GmbH & Co. KG,"Neustadter Straße 53 , 67454 Hassloch",+49 6324 92300,+49 6324 923090,info@autohaus-armbrust.de,https://www.volkswagen.de/de/haendler-werkstatt/autohaus-armbrust-hassloch.html,49.36343,8.24367
Autohaus Sydow GmbH,"Saarbrücker Straße 67 , 67742 Lauterecken",+49 6382 92320,+49 6382 923215,martina.sydow@sydow.vapn.de,https://www.volkswagen.de/de/haendler-werkstatt/autohaus-sydow-lauterecken.html,49.65025,7.58557
Schröder Team Bielefeld GmbH & Co. KG,"Am Stadtholz 54 , 33609 Bielefeld",+49 521 3296800,+49 521 32968076,info-bielefeld@schroeder-team.de,https://www.volkswagen.de/de/haendler-werkstatt/schroeder-team-bielefeld.html,52.03422,8.55534
Adolf Berning KG,"Herforder Straße 197 , 33609 Bielefeld",+49 521 323730,+49 521 3237340,info@autohaus-berning.de,https://www.volkswagen.de/de/haendler-werkstatt/autohaus-berning-bielefeld.html,52.03618,8.55511
Autohaus Großmann Inhaber Dirk Großmann,"Am Anger 22 , 07338 Eichicht",+49 36733 3360,+49 36733 33620,,https://www.volkswagen.de/de/haendler-werkstatt/autohaus-grossmann-eichicht.html,50.61361,11.43209
Autohaus von Keitz GmbH & Co. KG,"Merscheider Straße 76 , 42699 Solingen",+49 212 33940,+49 212 339438,info@vonkeitz.de,https://www.volkswagen.de/de/haendler-werkstatt/autohaus-von-keitz-solingen.html,51.16338,7.0177774
Autohaus Max Schultz GmbH & Co. KG,"Im Eichicht 1a , 96317 Kronach",+49 9261 60460,+49 9261 604660,info@vw-max-schultz.de,https://www.volkswagen.de/de/haendler-werkstatt/autohaus-max-schultz-kronach.html,50.233402,11.342717
Ebbinghaus Autozentrum Bochum GmbH,"Wittener Straße 270 , 44803 Bochum",+49 234 935930,+49 234 9359351,service.bochum@ea-mail.de,https://www.volkswagen.de/de/haendler-werkstatt/autohaus-fischer-bochum.html,51.47211,7.25605
Autohaus Rappold GmbH,"Im Riedle 4 , 74572 Blaufelden",+49 7953 98770,+49 7953 987734,info@autohaus-rappold.de,https://www.volkswagen.de/de/haendler-werkstatt/autohaus-rappold-blaufelden.html,49.297394,9.9818325
Steinböhmer GmbH & Co. KG,"Jöllenbecker Straße 325 , 33613 Bielefeld",+49 521 9865432,+49 521 9865430,info@steinboehmer.de,https://www.volkswagen.de/de/haendler-werkstatt/autohaus-steinboehmer-bielefeld.html,52.056644,8.518754
Autowelt Binder+ GmbH & Co. KG,"Am Wasserturm 30 , 74635 Kupferzell",+49 7944 942390,+49 7944 9423929,info@autowelt-binder.de,https://www.volkswagen.de/de/haendler-werkstatt/autowelt-binder-kupferzell.html,49.22516,9.68366
asw.AUTOMOBILE GmbH & Co. KG,"Werner-Haas-Straße 1 , 74172 Neckarsulm",+49 7132 3890,+49 7132 389189,infovw.neckarsulm@asw-automobile.de,https://www.volkswagen.de/de/haendler-werkstatt/asw-automobile-neckarsulm.html,49.17997,9.224726
Autohaus Koch-Nölscher GmbH,"Rothenburger Straße 3 , 91610 Insingen",+49 9861 95000,+49 9861 95009,vw-lohr@koch-autogruppe.de,https://www.volkswagen.de/de/haendler-werkstatt/autohaus-koch-noelscher-insingen.html,49.32738,10.16809
Bernhard Lünemann,"Essener Straße 29 , 45529 Hattingen",+49 2324 94620,+49 2324 946222,info@autohaus-luenemann.de,https://www.volkswagen.de/de/haendler-werkstatt/autohaus-bernhard-luenemann-hattingen.html,51.40397,7.13628
Feddersen Automobile GmbH,"Bethelner Landstraße 31 , 31028 Gronau",+49 5182 91360,+49 5182 913620,info-gronau@feddersen-automobile.de,https://www.volkswagen.de/de/haendler-werkstatt/feddersen-automobile-gronau.html,52.09094,9.786
Leo Sprungmann GmbH,"Deilbachtal 1 , 45257 Essen",+49 201 848380,+49 201 8483830,info@leo-sprungmann.de,https://www.volkswagen.de/de/haendler-werkstatt/autohaus-leo-sprungmann-essen.html,51.38286,7.08491
Gottfried Schultz Automobilhandels SE,"Johannes-Flintrop-Straße 127 , 40822 Mettmann",+49 2104 9250,+49 2104 925555,info_36@gottfried-schultz.de,https://www.volkswagen.de/de/haendler-werkstatt/gottfried-schultz-automobilhandels-se-mettmann.html,51.256824,6.9867687
Tepass Herne GmbH + Co. KG,"Bochumer Straße 200 , 44625 Herne",+49 2323 947111,+49 2323 4714,herne@ah-tepass.de,https://www.volkswagen.de/de/haendler-werkstatt/tepass-herne.html,51.52293,7.21512
Leintal Mobile GmbH,"Liebigstraße 34 , 74211 Leingarten",+49 7131 90380,,info@leintal-mobile.de,https://www.volkswagen.de/de/haendler-werkstatt/leintal-mobile-leingarten.html,49.14831,9.13459
Hans Steiner GmbH,"Lohackerstraße 11 , 44867 Bochum",+49 2327 3948,+49 2327 33201,info@autohaussteiner.de,https://www.volkswagen.de/de/haendler-werkstatt/autohaus-steiner-bochum.html,51.47224,7.14772
Autohaus Söffker GmbH,"Steinbrinksweg 12 , 31840 Hessisch Oldendorf",+49 5152 94700,+49 5152 947010,info@autohaus-soeffker.de,https://www.volkswagen.de/de/haendler-werkstatt/autohaus-soeffker-hessisch-oldendorf.html,52.16601,9.259375
Autozentrum Hagelauer GmbH & Co.KG,"Südstraße 50 - 54 , 74072 Heilbronn",+49 7131 62340,+49 7131 623453,info@hagelauer.de,https://www.volkswagen.de/de/haendler-werkstatt/autozentrum-hagelauer-heilbronn.html,49.13468,9.215925
Auto Meister,"Maybachstraße 5 - 6 , 74182 Obersulm-Affaltrach",+49 7130 6192,+49 7130 9424,automeisterobersulm@web.de,https://www.volkswagen.de/de/haendler-werkstatt/auto-meister-obersulm-affaltrach.html,49.13587,9.37699
Autohaus Otto Preusch GmbH & Co. KG,"Carl-Benz-Straße 18 , 75031 Eppingen",+49 7262 91850,+49 7262 918518,s.hauck@autohaus-preusch.de,https://www.volkswagen.de/de/haendler-werkstatt/autohaus-otto-preusch-eppingen.html,49.13672,8.92748
Autohaus Bahm GmbH,"Heilbronner Straße 29 , 76703 Kraichtal",+49 7250 92620,+49 7250 926240,moritz.bahm@autohaus-bahm.de,https://www.volkswagen.de/de/haendler-werkstatt/autohaus-bahm-kraichtal.html,49.14004,8.77236
STARKE Versmold GmbH & Co. KG,"Laerstraße 16 , 33775 Versmold",+49 5423 20400,+49 5423 204099,info@ps-zentrum.de,https://www.volkswagen.de/de/haendler-werkstatt/ps-zentrum-versmold.html,52.05271,8.146879
Feser-Biemann Forchheim GmbH,"Äußere Nürnberger Straße 60 , 91301 Forchheim",+49 9191 3401100,+49 9191 3401190,info.forchheim@feser-graf.de,https://www.volkswagen.de/de/haendler-werkstatt/autohaus-feser-biemann-forchheim.html,49.70544,11.06164
Autohaus Hollenhorst GmbH & Co.KG,"Seppenrader Straße 1 , 59348 Lüdinghausen",+49 2591 93980,+49 2591 939818,lh@auto-hollenhorst.de,https://www.volkswagen.de/de/haendler-werkstatt/autohaus-hollenhorst-co-luedinghausen.html,51.768368,7.4366255
Autohaus Schmidt GmbH & Co. KG,"Hubertusstraße 56-58 , 45657 Recklinghausen",+49 2361 904290,+49 2361 9042946,info.rev@autowelt-schmidt.de,https://www.volkswagen.de/de/haendler-werkstatt/autohaus-schmidt-recklinghausen.html,51.60616,7.20771
Feser-Biemann Baiersdorf GmbH,"Industriestraße 5 , 91083 Baiersdorf",+49 9133 47550,+49 9133 475525,info@vw-baumann.de,https://www.volkswagen.de/de/haendler-werkstatt/autohaus-feser-biemann-baiersdorf.html,49.66048,11.03938
Auto-Centrum Hoffmann GmbH,"Weidenäckerstraße 1 , 07381 Pößneck",+49 3647 46910,+49 3647 469110,vw-zentrale@hoffmann-mobile.de,https://www.volkswagen.de/de/haendler-werkstatt/auto-centrum-hoffmann-poessneck.html,50.702454,11.62211
Auto Gorges GmbH,"Hans-Georg-Mettler-Straße 1 , 54497 Morbach",+49 6533 93830,+49 6533 938388,info@auto-gorges.de,https://www.volkswagen.de/de/haendler-werkstatt/auto-gorges-morbach.html,49.79437,7.1075406
Autohaus Fischer GmbH,"Brückenstraße 6 , 07743 Jena",+49 3641 4850,+49 3641 485213,info@fischer-jena.de,https://www.volkswagen.de/de/haendler-werkstatt/autohaus-fischer-jena.html,50.956665,11.6186
Knubel GmbH & Co. KG,"Daimlerstraße 5 - 7 , 48291 Telgte",+49 2504 73390,+49 2504 733925,service-telgte@knubel.de,https://www.volkswagen.de/de/haendler-werkstatt/knubel-in-telgte.html,51.97912,7.78033
Autohaus Kuhlo GmbH,"Friedrichstraße 57 , 54516 Wittlich",+49 6571 97000,+49 6571 970044,info@autohaus-kuhlo.de,https://www.volkswagen.de/de/haendler-werkstatt/autohaus-kuhlo-wittlich.html,49.99024,6.9063773
Autohaus Kühl GmbH & Co. KG,"Münchewiese 5 , 31137 Hildesheim",+49 5121 9993450,+49 5121 9993410,kontakt@vw-zentrum-hildesheim.de,https://www.volkswagen.de/de/haendler-werkstatt/autohaus-kuehl-hildesheim.html,52.1643,9.93549
Autohaus Kröfges GmbH & Co. KG,"Moseltalstraße 40 , 54518 Osann-Monzel",+49 6535 93730,+49 6535 937331,kroefges@autohaus-kroefges.de,https://www.volkswagen.de/de/haendler-werkstatt/autohaus-kroefges-osann-monzel.html,49.91817,6.95226
Autohaus Vossel KG,"Heerstraße 54 , 53894 Mechernich",+49 2443 31060,+49 2443 310622,info@autohaus-vossel.de,https://www.volkswagen.de/de/haendler-werkstatt/autohaus-vossel-mechernich.html,50.58771,6.65026
Auto Thomas GmbH,"Am Mürel 18 , 53945 Blankenheim",+49 2449 91970,+49 2449 919750,terminlegungblankenheim@auto-thomas.de,https://www.volkswagen.de/de/haendler-werkstatt/auto-thomas-blankenheim.html,50.45005,6.66576
SEVO Automobile GmbH & Co. OHG,"Besigheimer Straße 62 , 74366 Kirchheim/N.",+49 7143 8947290,+49 7143 8947291,info@sevo.de,https://www.volkswagen.de/de/haendler-werkstatt/sevo-automobile-kirchheim.html,49.038982,9.14408
Autohaus Schneider GmbH + Co. KG,"Besigheimer Straße 62 , 74366 Kirchheim",+49 7143 89470,+49 7143 94246,info.kirchheim@sevo.de,https://www.volkswagen.de/de/haendler-werkstatt/autohaus-schneider-kirchheim.html,49.03895,9.14449
AHC Autohaus Crailsheim GmbH & Co. KG,"Ludwig-Erhard-Straße 120 , 74564 Crailsheim",+49 7951 3090,+49 7951 30916,audi-cr@koch-autogruppe.de,https://www.volkswagen.de/de/haendler-werkstatt/ahc-autohaus-crailsheim.html,49.13439,10.03626
Autohaus Clemens GmbH & Co. KG,"Tiefenbroicher Weg 12 , 40472 Düsseldorf",+49 211 4056980,+49 211 40569829,info@vwclemens.com,https://www.volkswagen.de/de/haendler-werkstatt/autohaus-clemens-duesseldorf.html,51.28726,6.793272
Autohaus Osterwieck GmbH,"Lüttgenröder Straße 1 , 38835 Osterwieck",+49 39421 6140,+49 39421 61449,info@autohaus-osterwieck.de,https://www.volkswagen.de/de/haendler-werkstatt/autohaus-osterwieck.html,51.96874,10.69994
Graf Hardenberg GmbH,"Alexanderplatz , 75015 Bretten",+49 7252 93740,+49 7252 937450,info-bretten@grafhardenberg.de,https://www.volkswagen.de/de/haendler-werkstatt/autohaus-graf-hardenberg-bretten.html,49.037846,8.687594
Autohaus Schlagheck GmbH & Co. KG,"Im Derdel 4 , 48161 Münster",+49 2534 97400,+49 2534 974029,info@autohaus-schlagheck.de,https://www.volkswagen.de/de/haendler-werkstatt/autohaus-schlagheck-muenster.html,51.95155,7.55326
Auto Caspers Inh. Theo Klünter,"Hauptstraße 54 , 54587 Birgel",+49 6597 686,+49 6597 4797,info@auto-caspers.de,https://www.volkswagen.de/de/haendler-werkstatt/auto-caspers-birgel.html,50.3169,6.62753
Autohaus Timpe GmbH,"Bielefelder Straße 10 , 49186 Bad Iburg",+49 5403 724900,+49 5403 7249019,info@autohaus-timpe.de,https://www.volkswagen.de/de/haendler-werkstatt/autohaus-timpe-bad-iburg.html,52.15421,8.043781
Auto-Hortz Inh. Wilhelm Josef Hortz,"Grossenbaumer Allee 77 - 87 , 47269 Duisburg",+49 203 710600,+49 203 760302,auto.hortz@auto-hortz.de,https://www.volkswagen.de/de/haendler-werkstatt/auto-hortz-duisburg.html,51.365696,6.778361
Automobile Fred Neuerburg e.K.,"Densborner Straße 16 , 54570 Meisburg",+49 6599 211,+49 6599 811,info@auto-neuerburg.de,https://www.volkswagen.de/de/haendler-werkstatt/automobile-fred-neuerburg-meisburg.html,50.11195,6.68579
Autohaus Finger GmbH,"Donauschwabenstraße 40 , 76149 Karlsruhe",+49 721 978600,+49 721 9786024,service@autohaus-finger.de,https://www.volkswagen.de/de/haendler-werkstatt/autohaus-finger-karlsruhe.html,49.05295,8.39562
Autohaus Strube GmbH,"Neißestraße 227 , 38226 Salzgitter",+49 5341 86990,+49 5341 869938,info@autohaus-strube.de,https://www.volkswagen.de/de/haendler-werkstatt/autohaus-strube-salzgitter.html,52.15595,10.35191
Quedac - Autohaus - GmbH,"Zwergkuhle 10 , 06484 Quedlinburg",+49 3946 77900,+49 3946 7790129,autohaus@quedac.de,https://www.volkswagen.de/de/haendler-werkstatt/quedac-autohaus-quedlinburg.html,51.78897,11.13439
Autohaus Dornig GmbH & Co. KG,"Ottostraße 15 , 95233 Helmbrechts",+49 9252 3890,+49 9252 38940,promobil@dornig.de,https://www.volkswagen.de/de/haendler-werkstatt/autohaus-dornig-helmbrechts.html,50.23675,11.72285
Autohaus Wilhelm Graf GmbH,"Georg-Benda-Straße 1 , 90763 Fürth",+49 911 99713110,+49 911 99713120,vw.fuerth@feser-graf.de,https://www.volkswagen.de/de/haendler-werkstatt/autohaus-wilhelm-graf-fuerth.html,49.446247,10.99538
Autohaus Feser-Breitschwert GmbH,"Im Herrmannshof 25 , 91595 Burgoberbach",+49 9805 933980,+49 9805 9339811,vw.burgoberbach@feser-graf.de,https://www.volkswagen.de/de/haendler-werkstatt/autohaus-feser-burgoberbach.html,49.23907,10.60715
Autohaus Moll Kaarst GmbH,"Königsberger Straße 2 , 41564 Kaarst",+49 2131 96000,+49 2131 960096,kaarst@moll.de,https://www.volkswagen.de/de/haendler-werkstatt/autohaus-moll-kaarst.html,51.21975,6.632
Hahn Automobile GmbH + Co. KG NL Bietigheim-Bissingen,"Beihinger Straße 9 , 74321 Bietigheim-Bissingen",+49 7142 95460,+49 7142 954650,vw-bietigheim@hahn-automobile.de,https://www.volkswagen.de/de/haendler-werkstatt/hahn-automobile-bietigheim-bissingen.html,48.951344,9.146704
Autohaus Rettenmeier GmbH & Co. KG,"Hauptstraße 43 - 45 , 74597 Stimpfach-Randenweiler",+49 7967 710910,,info@autohaus-rettenmeier.de,https://www.volkswagen.de/de/haendler-werkstatt/autohaus-rettenmeier-stimpfach-randenweiler.html,49.05404,10.0818
Autohaus Leicht GmbH,"Hauptstraße 1 , 76327 Pfinztal",+49 7240 942225,+49 7240 942226,info@autohausleicht.de,https://www.volkswagen.de/de/haendler-werkstatt/autohaus-leicht-pfinztal.html,48.98947,8.53501
Volkswagen Automobile Hannover GmbH,"Hildesheimer Straße 451 , 30519 Hannover",+49 511 86090,+49 511 8609199,info.hildesheimer-strasse@vw-ah.de,https://www.volkswagen.de/de/haendler-werkstatt/volkswagen-automobile-hannover-hildesheimer-strasse.html,52.32147,9.78451
Heinz Memmer,"Karlshöhlchen 1 , 76872 Freckenfeld",+49 6340 797,+49 6340 5669,service@autohausmemmer.de,https://www.volkswagen.de/de/haendler-werkstatt/autohaus-memmer-freckenfeld.html,49.0689,8.12557
Autohaus Hermsdorfer Kreuz GmbH,"An der Krümme 2 , 07639 Bad Klosterlausnitz",+49 36601 7880,+49 36601 78822,info@thiemegruppe.com,https://www.volkswagen.de/de/haendler-werkstatt/autohaus-hermsdorfer-kreuz-bad-klosterlausnitz.html,50.90793,11.85977
Autozentrum Vogt Vaihingen GmbH & Co. KG,"Stuttgarter Straße 62 , 71665 Vaihingen",+49 7042 95250,+49 7042 952510,info.vaihingen@sevo.de,https://www.volkswagen.de/de/haendler-werkstatt/sevo-automobile-vaihingen.html,48.92948,8.96078
Autohaus Wolfenbüttel GmbH,"Frankfurter Straße 37 , 38304 Wolfenbüttel",+49 5331 40090,+49 5331 400940,info@ahwf.de,https://www.volkswagen.de/de/haendler-werkstatt/autohaus-wolfenbuettel.html,52.164066,10.509949
Autohaus Reiner Fütz GmbH & Co. KG,"Mindener Straße 27 , 49152 Bad Essen",+49 5472 77000,+49 5472 770099,info@fuetz.de,https://www.volkswagen.de/de/haendler-werkstatt/autohaus-reiner-fuetz-bad-essen.html,52.31863,8.39779
Auto-Krause GmbH & Co. KG,"Alte Bahnhofstraße 66 , 48268 Greven",+49 2571 9588190,,,https://www.volkswagen.de/de/haendler-werkstatt/auto-krause-greven.html,52.09369,7.59965
Starke Ibbenbüren GmbH & Co. KG,"Tecklenburger Straße 6-8 , 49525 Lengerich",+49 5481 80090,+49 5481 800935,info.lengerich@starke-gruppe.de,https://www.volkswagen.de/de/haendler-werkstatt/starke-ibbenbueren-lengerich.html,52.19167,7.84638
Autohaus Possögel GmbH,"Weißenfelser Straße 22-24 , 06618 Naumburg",+49 3445 70540,+49 3445 705422,info@autohaus-possoegel.com,https://www.volkswagen.de/de/haendler-werkstatt/autohaus-possoegel-naumburg.html,51.150543,11.817788
Autohaus Kröninger GmbH & Co. KG,"Welvertstraße 4-6 , 66606 St. Wendel",+49 6851 993090,+49 6851 9930913,infosanktwendel@autohaus-kroeninger.de,https://www.volkswagen.de/de/haendler-werkstatt/autohaus-kroeninger-st-wendel.html,49.46964,7.14694
Günter Pellmann GmbH,"Aeckern 2 A , 48734 Reken",+49 2864 1039,+49 2864 6274,info@pellmann.vapn.de,https://www.volkswagen.de/de/haendler-werkstatt/autohaus-guenter-pellmann-reken.html,51.80551,7.05435
Autohaus Toepner GmbH & Co. KG,"Maybachstraße 9 , 71397 Leutenbach",+49 7195 583540,+49 7195 5835499,info@autohaus-toepner.de,https://www.volkswagen.de/de/haendler-werkstatt/autohaus-toepner-leutenbach.html,48.90067,9.41677
Autohaus Wilhelm Elsässer GmbH,"Ersinger Straße 33 , 75228 Ispringen",+49 7231 89624,,h.braun@vw-elsaesser.de,https://www.volkswagen.de/de/haendler-werkstatt/autohaus-wilhelm-elsaesser-ispringen.html,48.92178,8.65969
Autohaus Fasselt GmbH,"Kapellenweg 42 , 46514 Schermbeck",+49 2853 2994,+49 2853 954661,stefan.fasselt@autohaus-fasselt.de,https://www.volkswagen.de/de/haendler-werkstatt/autohaus-fasselt-schermbeck.html,51.68478,6.8808
Träger Autohaus GmbH,"Ascherslebener Straße 18f , 06467 Seeland/Hoym",+49 34741 389,+49 34741 91114,info@traeger-autohaus.de,https://www.volkswagen.de/de/haendler-werkstatt/traeger-autohaus-seeland-hoym.html,51.78488,11.327788
Autohaus Strobel GmbH,"Kirschenleite 20 , 91220 Schnaittach",+49 9153 92650,+49 9153 926537,info@auto-strobel.de,https://www.volkswagen.de/de/haendler-werkstatt/autohaus-strobel-schnaittach.html,49.566452,11.337481
Autohaus Brandt & Sohn GmbH,"Weiherstraße 17 , 75446 Wiernsheim",+49 7044 92660,,info@brandt-u-sohn.de,https://www.volkswagen.de/de/haendler-werkstatt/autohaus-brandt-sohn-wiernsheim.html,48.89181,8.85397
Feser Lauf GmbH,"Röthenbacher Straße 28 , 91207 Lauf",+49 9123 9401100,+49 9123 940111,info.lauf@feser-graf.de,https://www.volkswagen.de/de/haendler-werkstatt/autohaus-feser-lauf.html,49.50149,11.27495
Autohaus KAHLE GmbH & Co. KG,"Hagenburger Straße 16 - 18 , 31515 Wunstorf",+49 5031 95600,+49 5031 956095,wunstorf@kahle.de,https://www.volkswagen.de/de/haendler-werkstatt/autohaus-kahle-wunstorf.html,52.42931,9.42058
"Knubel GmbH & Co. KG, Zweigniederlassung Coesfeld","Druffels Weg 91 / 91a , 48653 Coesfeld",+49 2541 94840,+49 2541 948450,service-coesfeld@knubel.de,https://www.volkswagen.de/de/haendler-werkstatt/knubel-in-coesfeld.html,51.93227,7.17096
Autohaus Vöge GmbH & Co. KG,"Löwenberger Straße 38 , 90475 Nürnberg",+49 911 860770,+49 911 8607755,info@autohaus-voege.de,https://www.volkswagen.de/de/haendler-werkstatt/autohaus-voege-nuernberg.html,49.411232,11.171981
Auto Heser e. K. Inh. Claudia Schöbel,"Löchleinstalstraße 347 , 95485 Warmensteinach",+49 9277 567,+49 9277 6163,claudia.schoebel@autoheser.de,https://www.volkswagen.de/de/haendler-werkstatt/auto-heser-warmensteinach.html,49.999886,11.783166
P. Jacobs Automobile GmbH,"Bundesstraße 91 - 93 , 52152 Simmerath",+49 2473 927890,+49 2473 9278933,info@krings-automobile.de,https://www.volkswagen.de/de/haendler-werkstatt/p-jacobs-automobile-simmerath.html,50.60636,6.33105
Siemon GmbH,"Reckenfelder Straße 110 , 48282 Emsdetten",+49 2572 923400,+49 2572 9234010,info@autohaus-siemon.de,https://www.volkswagen.de/de/haendler-werkstatt/autohaus-siemon-emsdetten.html,52.14054,7.53905
Dipl.-Ing. H. Röder GmbH u. Co. KG,"Bannemerfeld 6 , 46569 Hünxe",+49 2858 908720,+49 2858 9087235,info-huenxe@auto-roeder.de,https://www.volkswagen.de/de/haendler-werkstatt/autohaus-roeder-huenxe.html,51.64456,6.75955
Volkswagen Economy Service bhg,"Robert-Bosch-Straße 2 , 76448 Durmersheim",,,vw-ettlingen@bhg-mobile.de,,48.94147,8.25508
Leonhard Sperber GmbH,"Straßäckerweg 6 + 12 , 91227 Leinburg",+49 9120 18840,+49 9120 188420,info@auto-sperber.de,https://www.volkswagen.de/de/haendler-werkstatt/auto-sperber-leinburg.html,49.46201,11.28497
Autohaus im Geiseltal GmbH,"Müchelner Landstraße 10 , 06242 Braunsbedra",+49 34633 3040,+49 34633 30450,info.braunsbedra@geiseltalgruppe.de,https://www.volkswagen.de/de/haendler-werkstatt/autohaus-im-geiseltal-braunsbedra.html,51.28538,11.87116
Automobilwelt Eifel - Mosel GmbH,"Dieselstraße 18 , 54634 Bitburg",+49 6561 6004800,+49 6561 6004829,mail@eifelmosel.de,https://www.volkswagen.de/de/haendler-werkstatt/automobilwelt-eifel-mosel-bitburg.html,49.953213,6.530233
Hahn Automobile GmbH + Co. KG,"Apfelallee 35 , 70825 Korntal-Münchingen",+49 711 836390,+49 711 8363930,info@hahn-gruppe.de,https://www.volkswagen.de/de/haendler-werkstatt/hahn-automobile-korntal-muenchingen.html,48.82879,9.1273
Autohaus Holzberg GmbH,"Hamburger Straße 23 , 38114 Braunschweig",+49 531 388180,+49 531 3881889,info@autohaus-holzberg.de,https://www.volkswagen.de/de/haendler-werkstatt/autohaus-holzberg-braunschweig.html,52.276722,10.519729
Joachim Blakert,"Midlicher Straße 80 - 86 , 48720 Rosendahl",+49 2547 93100,+49 2547 931020,info@blakert.de,https://www.volkswagen.de/de/haendler-werkstatt/autohaus-joachim-blakert-rosendahl.html,52.01155,7.19284
Volkswagen Automobile Stuttgart GmbH,"Heilbronner Str. 392 , 70469 Stuttgart",+49 711 138930,+49 711 1389340,kundenservice@vw-as.de,https://www.volkswagen.de/de/haendler-werkstatt/volkswagen-automobile-stuttgart-feuerbach.html,48.814907,9.17807
Hahn Automobile GmbH + Co. KG NL Weinstadt,"Heerbergstraße 1 , 71384 Weinstadt",+49 7151 17020,+49 7151 170250,weinstadt@hahn-automobile.de,https://www.volkswagen.de/de/haendler-werkstatt/hahn-automobile-weinstadt.html,48.81475,9.35741
Autohaus Jansen & Drouven GmbH,"Kränkelsweg 40 , 41748 Viersen",+49 2162 15020,+49 2162 351843,schiffer@jansen-autohaus.de,https://www.volkswagen.de/de/haendler-werkstatt/jansen-drouven-viersen.html,51.26583,6.40017
Autohaus Mura GmbH,"Hauptstraße 1 , 38162 Cremlingen",+49 5306 92930,+49 5306 929316,info@autohaus-mura.de,https://www.volkswagen.de/de/haendler-werkstatt/autohaus-mura-cremlingen.html,52.24991,10.64775
Jacobs Automobile Heinsberg GmbH,"Krefelder Straße 2 , 41812 Erkelenz",+49 2431 977730,+49 2431 9777318,info@jacobs-erkelenz.de,https://www.volkswagen.de/de/haendler-werkstatt/jacobs-automobile-heinsberg-erkelenz.html,51.07682,6.30856
AFA Autohaus Gera-Nord GmbH,"Siemensstraße 47 , 07546 Gera",+49 365 437020,+49 365 4200223,info@afanord.de,https://www.volkswagen.de/de/haendler-werkstatt/afa-autohaus-gera.html,50.908073,12.06742
Auto Kraus e. K.,"Windsbacher Straße 35-39 , 91174 Spalt",+49 9175 790990,+49 9175 9541,info@autokraus.de,https://www.volkswagen.de/de/haendler-werkstatt/auto-kraus-spalt.html,49.17731,10.91835
Hahn Automobile GmbH + Co. KG NL Schorndorf,"Stuttgarter Straße 31-57 , 73614 Schorndorf",+49 7181 40920,+49 7181 409210,vw-schorndorf@hahn-automobile.de,https://www.volkswagen.de/de/haendler-werkstatt/hahn-automobile-schorndorf.html,48.80545,9.5141
Jacobs automobile GmbH,"Eschweiler Straße 58 - 64 , 52222 Stolberg",+49 2402 9990000,+49 2402 99900077,info@jacobs-stolberg.de,https://www.volkswagen.de/de/haendler-werkstatt/jacobs-automobile-stolberg.html,50.78135,6.22362
Autohaus Weeber GmbH,"Glemseckstraße 39/49 , 71229 Leonberg",+49 7152 9765100,+49 7152 9765190,info-vw-leo@autohaus-weeber.de,https://www.volkswagen.de/de/haendler-werkstatt/autohaus-weeber-leonberg.html,48.78774,9.01398
Waldhausen & Bürkel Viersen GmbH & Co. KG,"Viersener Straße 137 , 41751 Viersen",+49 2162 93400,+49 2162 934051,info@waldhausen-buerkel.de,https://www.volkswagen.de/de/haendler-werkstatt/volkswagen-zentrum-viersen.html,51.254612,6.3519998
Autohaus Bennstedt ein Unternehmen der Autohaus Huttenstraße GmbH,"Alte Hallesche Straße 23b , 06198 Salzatal OT Bennstedt",+49 34601 3950,+49 34601 39529,info@ah-bennstedt.de,https://www.volkswagen.de/de/haendler-werkstatt/autohaus-huttenstrasse-salzatal-bennstedt.html,51.48,11.83579
Auto-Fixemer GmbH,"An der Grühlingseiche 1 , 66299 Friedrichsthal",+49 6897 98220,+49 6897 982222,info@autohaus-fixemer.de,https://www.volkswagen.de/de/haendler-werkstatt/auto-fixemer-friedrichsthal.html,49.33169,7.0889
Feser-Graf Roth GmbH,"Fuggerstraße 4 , 91154 Roth",+49 9171 849100,+49 9171 849219,vw.roth@feser-graf.de,https://www.volkswagen.de/de/haendler-werkstatt/autohaus-feser-joachim-roth.html,49.24797,11.10813
Autohaus Sorg GmbH,"Lorcher Straße 38 , 73547 Lorch-Waldhausen",+49 7172 926440,,info@autohaussorg.de,,48.7906,9.64389
Autohaus Böttche GmbH,"Friedrichstraße 65 , 39387 Oschersleben",+49 3949 94430,+49 3949 944319,oschersleben@autohaus-boettche.de,https://www.volkswagen.de/de/haendler-werkstatt/autohaus-boettche-oschersleben.html,52.03109,11.2385
Jacobs Automobile Alsdorf GmbH,"Max-Planck-Straße 17 - 21 , 52477 Alsdorf",+49 2404 55080,+49 2404 550860,info@jacobs-alsdorf.de,https://www.volkswagen.de/de/haendler-werkstatt/jacobs-automobile-alsdorf.html,50.87843,6.18559
Autohaus Marpert GmbH,"Neue Mühle 2 , 48739 Legden",+49 2566 3006,+49 2566 1206,info@marpert.de,https://www.volkswagen.de/de/haendler-werkstatt/autohaus-marpert-legden.html,52.04106,7.08995
Gebr. Fischbach GmbH & Co. KG,"Prümzurlayer Straße 18 , 54666 Irrel",+49 6525 7701,+49 6525 7443,klaus.fischbach@fischbach-irrel.de,https://www.volkswagen.de/de/haendler-werkstatt/gebr-fischbach-irrel.html,49.84717,6.45124
Peter Ullrich e.K.,"Dorfstraße 39 , 47661 Issum",+49 2835 5124,+49 2835 6876,info@autohaus-ullrich.com,https://www.volkswagen.de/de/haendler-werkstatt/autohaus-peter-ullrich-issum.html,51.4941,6.42639
Hahn Automobile GmbH + Co. KG NL Esslingen,"Ottostraße 6 , 73734 Esslingen",+49 711 938480,+49 711 9384818,vw-esslingen@hahn-automobile.de,https://www.volkswagen.de/de/haendler-werkstatt/hahn-automobile-esslingen.html,48.73755,9.294118
Autohaus Tumbrink GmbH,"Rheiner Straße 7 , 48477 Hörstel",+49 5459 93030,+49 5459 930323,info@autohaus-tumbrink.de,https://www.volkswagen.de/de/haendler-werkstatt/autohaus-tumbrink-hoerstel.html,52.29985,7.5857
Autohaus Klinkner GmbH,"Wolfsborn 50-56 , 66679 Losheim am See",+49 6872 91400,+49 6872 91486,info@vw-klinkner.de,https://www.volkswagen.de/de/haendler-werkstatt/autohaus-klinkner-losheim-am-see.html,49.50799,6.76241
Autohaus Lydorf GmbH,"Bettinger Straße 33 , 66839 Schmelz",+49 6887 90280,+49 6887 87307,info@autohaus-lydorf.de,https://www.volkswagen.de/de/haendler-werkstatt/autohaus-lydorf-schmelz.html,49.43141,6.84666
Autohaus Scholz GmbH,"Willy-Brandt-Ring 10 , 08606 Oelsnitz",+49 37421 22112,+49 37421 22114,ah.scholz@autohausscholz.de,https://www.volkswagen.de/de/haendler-werkstatt/autohaus-scholz-oelsnitz.html,50.426273,12.171665
Autohaus Gerstenmaier GmbH,"Bäumbachallee 6 , 76571 Gaggenau",+49 7225 96890,+49 7225 968950,info@gerstenmaier.com,https://www.volkswagen.de/de/haendler-werkstatt/autohaus-gerstenmaier-gaggenau.html,48.8006,8.309913
Vogtland Automobile Greiz GmbH & Co. KG,"Reichenbacher Straße 65 , 07973 Greiz",+49 3661 708570,+49 3661 6616,info@ah-greiz.de,https://www.volkswagen.de/de/haendler-werkstatt/vogtland-automobile-greiz.html,50.651695,12.225084
Hahn Automobile GmbH + Co. KG NL Ebersbach,"Fabrikstraße 3 , 73061 Ebersbach",+49 7163 10020,+49 7163 100260,ebersbach@hahn-automobile.de,https://www.volkswagen.de/de/haendler-werkstatt/hahn-automobile-ebersbach.html,48.71842,9.538053
Autohaus Haitzler GmbH,"Schwarzwaldstraße 48 , 76593 Gernsbach",+49 7224 91750,+49 7224 917525,service@haitzler.de,https://www.volkswagen.de/de/haendler-werkstatt/autohaus-haitzler-gernsbach.html,48.773586,8.342199
Kaisermobile GmbH,"Am Rosengarten 1 , 06406 Bernburg",+49 3471 36100,+49 3471 361063,service@kaisermobile.de,https://www.volkswagen.de/de/haendler-werkstatt/kaisermobile-bernburg.html,51.79013,11.70294
Autohaus Drechsler GmbH & Co. KG,"Deizisauer Straße 24 , 73770 Denkendorf",+49 711 93495000,+49 711 93495029,verkauf@vw-drechsler.de,https://www.volkswagen.de/de/haendler-werkstatt/autohaus-drechsler-denkendorf.html,48.694157,9.327547
Feser und Wittig GmbH,"Hallesche Landstraße 110 , 06406 Bernburg",+49 3471 32210,+49 3471 322150,vw.bernburg@feser-graf.de,https://www.volkswagen.de/de/haendler-werkstatt/autohaus-feser-und-wittig-bernburg.html,51.771107,11.748294
Autohaus Minrath GmbH & Co. KG,"Weseler Straße 150 - 152 , 47608 Geldern",+49 2831 93040,+49 2831 930469,kontakt@minrath.de,https://www.volkswagen.de/de/haendler-werkstatt/autohaus-minrath-geldern.html,51.521744,6.342841
Autohaus Gerstenmaier Baden GmbH,"Jagdhausstraße 1 , 76530 Baden-Baden",+49 7221 95550,+49 7221 955538,info@gerstenmaier.com,https://www.volkswagen.de/de/haendler-werkstatt/autohaus-gerstenmaier-baden-baden.html,48.771225,8.225164
Autohaus Kubik GmbH & Co. KG,"Käthe-Kollwitz-Straße 57 , 06116 Halle",+49 345 5700415,+49 345 5700421,info@autohauskubik.de,https://www.volkswagen.de/de/haendler-werkstatt/autohaus-kubik-halle.html,51.47329,12.03049
Hahn Automobile GmbH + Co. KG NL Göppingen,"Holzheimer Straße 1 , 73037 Göppingen",+49 7161 978280,+49 7161 9782851,vw-goeppingen@hahn-automobile.de,https://www.volkswagen.de/de/haendler-werkstatt/hahn-automobile-goeppingen.html,48.69435,9.666541
Autohaus G. Röttering GmbH,"Gronauer Straße 112 , 48607 Ochtrup",+49 2553 97700,+49 2553 977027,gregor.roettering@auto-roettering.de,https://www.volkswagen.de/de/haendler-werkstatt/autohaus-g-roettering-ochtrup.html,52.20704,7.16853
Autohaus Gottfried Maier GmbH,"Nürtinger Straße 33 - 35 , 72649 Wolfschlugen",+49 7022 51240,,info@vw-autohaus-maier.de,https://www.volkswagen.de/de/haendler-werkstatt/autohaus-gottfried-maier-wolfschlugen.html,48.65188,9.29358
Auto Schmid GmbH,"Im Dugendorf 7 , 73084 Salach",+49 7162 933770,+49 7162 3580,anfrage@autoschmid.com,https://www.volkswagen.de/de/haendler-werkstatt/auto-schmid-salach.html,48.68445,9.73378
Motor-Nützel Vertriebs-GmbH,"Bahnhofstraße 24 , 92681 Erbendorf",+49 9682 182920,+49 9682 1829230,vw-erbendorf@motor-nuetzel.de,https://www.volkswagen.de/de/haendler-werkstatt/motor-nuetzel-erbendorf.html,49.84357,12.04867
Ramsperger Automobile GmbH & Co. KG,"Hindenburgstraße 45 , 73230 Kirchheim",+49 7021 50010,+49 7021 5001108,info@ramsperger-automobile.de,https://www.volkswagen.de/de/haendler-werkstatt/ramsperger-automobile-kirchheim.html,48.642296,9.45371
Auto Bierschneider GmbH,"Alois-Senefelder-Straße 17 , 92318 Neumarkt",+49 9181 32020,,info.neumarkt@bierschneider.de,https://www.volkswagen.de/de/haendler-werkstatt/auto-bierschneider-neumarkt.html,49.25863,11.44013
Autohaus Högler GmbH,"Uferstraße 10-12 , 72631 Aichtal-Grötzingen",+49 7127 952749,+49 7127 952769,autohaus.hoegler@web.de,https://www.volkswagen.de/de/haendler-werkstatt/autohaus-hoegler-aichtal-groetzingen.html,48.62536,9.26166
Autohaus Heinicke GmbH & Co. KG,"An der Zuckerfabrik 1 , 39356 Weferlingen",+49 39061 9630,+49 39061 96330,info@autohaus-heinicke.de,https://www.volkswagen.de/de/haendler-werkstatt/autohaus-heinicke-weferlingen.html,52.309734,11.049341
Autohaus Braun GmbH,"Calwer Straße 304 , 72218 Wildberg",+49 7054 365,+49 7054 368,info@autohausbraun.de,https://www.volkswagen.de/de/haendler-werkstatt/autohaus-braun-wildberg.html,48.636738,8.746957
Autohaus Schüler & Co. GmbH,"Oelsnitzer Straße 65 , 08223 Falkenstein",+49 3745 78870,+49 3745 788733,kd.vw@autohaus-schueler.de,https://www.volkswagen.de/de/haendler-werkstatt/autohaus-schueler-falkenstein.html,50.468735,12.354423
Sürgers Automobile GmbH & Co. KG,"Gewerbering 2 , 47623 Kevelaer",+49 2832 932211,+49 2832 932233,info@suergers.com,https://www.volkswagen.de/de/haendler-werkstatt/suergers-automobile-kevelaer.html,51.58052,6.262
Autohaus Jarski GmbH,"Radegaster Straße 50a , 06369 Südl. Anhalt OT Görzig",+49 34975 21572,+49 34975 21007,info@jarski.de,https://www.volkswagen.de/de/haendler-werkstatt/autohaus-jarski-suedl-anhalt.html,51.66036,12.00335
Autohaus Bauer GmbH,"Alte Lengenfelder Straße 2 B , 08228 Rodewisch",+49 3744 36900,+49 3744 369030,info@ah-bauer.de,https://www.volkswagen.de/de/haendler-werkstatt/autohaus-bauer-rodewisch.html,50.54496,12.38683
Autohaus Lampa Bersenbrück GmbH,"Robert-Bosch-Straße 11 , 49593 Bersenbrück",+49 5439 94500,+49 5439 945045,,https://www.volkswagen.de/de/haendler-werkstatt/autohaus-lampa-bersenbrueck.html,52.55591,7.9331
Koller GmbH & Co. KG,"Wolfsburger Straße 22-26 , 38448 Wolfsburg",+49 5363 97200,+49 5363 972022,kundenservice@autohaus-koller.de,https://www.volkswagen.de/de/haendler-werkstatt/autohaus-koller-wolfsburg.html,52.4385,10.83233
Autohaus Vortkamp GmbH,"Enscheder Straße 313 , 48599 Gronau",+49 2562 93360,+49 2562 25635,info@vortkamp.de,https://www.volkswagen.de/de/haendler-werkstatt/autohaus-vortkamp-gronau.html,52.21494,6.98578
Voets Autozentrum Magdeburg Süd GmbH,"Werner-von-Siemens-Ring 5 , 39116 Magdeburg",+49 391 60990,+49 391 6099105,info@voets-md-sued.de,https://www.volkswagen.de/de/haendler-werkstatt/voets-autozentrum-magdeburg-sued.html,52.081337,11.579642
Autohaus Lübbe GmbH,"Im Bulloh 40 , 29331 Lachendorf",+49 5145 98980,+49 5145 989850,info@autohaus-luebbe.de,https://www.volkswagen.de/de/haendler-werkstatt/autohaus-luebbe-lachendorf.html,52.629963,10.23404
Volkswagen Automobile Leipzig GmbH,"Merseburger Straße 200 , 04178 Leipzig",+49 341 25000100,+49 341 25000109,info@vw-al.de,https://www.volkswagen.de/de/haendler-werkstatt/volkswagen-automobile-leipzig-merseburger-strasse.html,51.343044,12.30134
Autohaus Schröer GmbH,"Industriestraße 1 , 49584 Fürstenau",+49 5901 93930,+49 5901 939350,info@autohaus-schroeer.de,https://www.volkswagen.de/de/haendler-werkstatt/autohaus-schroeer-fuerstenau.html,52.53187,7.66778
AMB Automobile Borna GmbH Niederlassung Böhlen,"Röthaer Straße 53 , 04564 Böhlen",+49 34206 6190,+49 34206 61925,boehlen@amb-autowelt.de,https://www.volkswagen.de/de/haendler-werkstatt/amb-automobile-boehlen.html,51.19772,12.39563
Autohaus Ruhe GmbH,"Quakenbrücker Straße 17 , 49413 Dinklage",+49 4443 507990,+49 4443 3041,kontakt@autohaus-ruhe.de,https://www.volkswagen.de/de/haendler-werkstatt/autohaus-ruhe-dinklage.html,52.66722,8.116415
Autohaus Manfred Engelmann OHG,"Freie Straße 2-5 , 39112 Magdeburg",+49 391 625880,+49 391 6258829,mail@autohaus-engelmann.de,https://www.volkswagen.de/de/haendler-werkstatt/autohaus-manfred-engelmann-magdeburg.html,52.10941,11.628202
Reichert Automobile GmbH,"Daimlerstr. 10 , 72581 Dettingen",+49 7123 97470,+49 7123 974747,info@reichert-automobile.de,https://www.volkswagen.de/de/haendler-werkstatt/reichert-automobile.html,48.52974,9.33445
Autohaus Raab GmbH,"Dr.-Johann-Stark-Straße 8 , 92637 Weiden",+49 961 670950,+49 961 27173,info@auto-raab.de,https://www.volkswagen.de/de/haendler-werkstatt/autohaus-raab-weiden.html,49.69249,12.13765
Autohaus Schleeh Inh.Gerhard Schleeh,"Murgtalstraße 327 , 72270 Baiersbronn-Röt",+49 7442 50031,+49 7442 50220,gerhard.schleeh@autohaus-schleeh.de,https://www.volkswagen.de/de/haendler-werkstatt/autohaus-schleeh-baiersbronn-roet.html,48.55705,8.39923
Auto-Kohler GmbH & Co. KG,"Daimlerstraße 20 , 72285 Pfalzgrafenweiler",+49 7445 857660,+49 7445 8576619,Info@auto-kohler.de,https://www.volkswagen.de/de/haendler-werkstatt/auto-kohler-pfalzgrafenweiler.html,48.53313,8.57157
Autohaus Weber GmbH,"Friedrich-Schmelzer-Str. 5 , 39340 Haldensleben",+49 3904 725910,+49 3904 7259119,info@autos-weber.de,https://www.volkswagen.de/de/haendler-werkstatt/autohaus-weber-haldensleben.html,52.28447,11.43084
Autohaus Grünhagen GmbH & Co. KG,"Auf dem Kuhkamp 3 , 27318 Hoya",+49 4251 672740,+49 4251 672749,ralf.gruenhagen@autohaus-gruenhagen.de,https://www.volkswagen.de/de/haendler-werkstatt/autohaus-gruenhagen-hoya.html,52.81273,9.139434
Grafschafter Autozentrale Heinrich Krüp GmbH,"Bentheimer Straße 243 - 245 , 48529 Nordhorn",+49 5921 3060,+49 5921 30639,kontakt@autohaus-kruep.de,https://www.volkswagen.de/de/haendler-werkstatt/grafschafter-autozentrale-heinrich-kruep-nordhorn.html,52.401207,7.0916104
Autohaus Spille GmbH & Co. KG,"Loher Straße 8 , 49456 Bakum",+49 4446 319,+49 4446 1694,autohaus-spille@t-online.de,https://www.volkswagen.de/de/haendler-werkstatt/autohaus-spille-bakum.html,52.74203,8.19599
Autohaus Willibald Müller GmbH,"Dübener Straße 133 , 04509 Delitzsch",+49 34202 7070,+49 34202 70730,,https://www.volkswagen.de/de/haendler-werkstatt/autohaus-willibald-mueller-delitzsch.html,51.52803,12.343833
Auto König GmbH & Co. KG,"Nürnberger Straße 20 , 86609 Donauwörth",+49 906 706650,+49 906 7066565,infodonvw@autokoenig.de,https://www.volkswagen.de/de/haendler-werkstatt/auto-koenig-donauwoerth.html,48.733837,10.778271
Auto-Center Weber GmbH & Co. KG,"Otto-Schmidt-Straße 8 , 04425 Taucha",+49 34298 5040,+49 34298 50425,info@auto-center-weber.de,https://www.volkswagen.de/de/haendler-werkstatt/auto-center-weber-taucha.html,51.36803,12.4755
Autohaus Schmidt & Söhne GmbH & Co. KG,"Celler Straße 49 , 29303 Bergen",+49 5051 98660,+49 5051 986655,bergen@schmidt-soehne.com,https://www.volkswagen.de/de/haendler-werkstatt/autohaus-schmidt-soehne-bergen.html,52.80241,9.96815
Kurt Atzinger GmbH,"Lindlbergstraße 11 , 92331 Parsberg",+49 9492 5135,+49 9492 7223,info@atzinger-automobile.de,https://www.volkswagen.de/de/haendler-werkstatt/atzinger-automobile-parsberg.html,49.15929,11.71277
Rusche GmbH,"Rogätzer Straße 23 , 39326 Wolmirstedt",+49 39201 5690,+49 39201 56969,c.rusche@autohaus-rusche.de,https://www.volkswagen.de/de/haendler-werkstatt/autohaus-rusche-wolmirstedt.html,52.26083,11.63763
Autohaus Erich Kronenbitter e.K.,"Stadionstraße 1 , 72160 Horb",+49 7451 55650,+49 7451 2069,info@autohaus-kronenbitter.de,https://www.volkswagen.de/de/haendler-werkstatt/autohaus-erich-kronenbitter-horb.html,48.439995,8.677866
Autohaus Schandert GmbH,"Mannheimer Straße 16 , 06847 Dessau",+49 340 5711560,+49 340 57115699,info@auto-schandert.de,https://www.volkswagen.de/de/haendler-werkstatt/autohaus-schandert-dessau.html,51.82391,12.2157
Autohaus Heinz Rakel GmbH,"Dieselstraße 2 , 49770 Herzlake",+49 5937 92760,,info@autohaus-rakel.de,https://www.volkswagen.de/de/haendler-werkstatt/autohaus-heinz-rakel-herzlake.html,52.68816,7.61335
Autohaus Feser-Heise GmbH,"Heidestraße 75 , 06842 Dessau",+49 340 87010,,info.dessau@feser-graf.de,https://www.volkswagen.de/de/haendler-werkstatt/autohaus-heise-dessau.html,51.81819,12.2419
Graupner GmbH,"Gewerbeallee 2 , 04821 Brandis",+49 34292 6500,+49 34292 65099,post@autohaus-graupner.de,https://www.volkswagen.de/de/haendler-werkstatt/autohaus-graupner-brandis.html,51.329998,12.582264
Autohaus Gebr. Schwarte GmbH & Co. KG,"Lingener Straße 1 A , 49740 Haselünne",+49 5961 94600,+49 5961 946060,schwarte.haseluenne@nowag.com,https://www.volkswagen.de/de/haendler-werkstatt/autohaus-gebr-schwarte-haseluenne.html,52.66924,7.48559
Autohaus Reckziegel GmbH,"Altes Heidland 1 , 27243 Harpstedt",+49 4244 919990,+49 4244 9199947,info@autohaus-reckziegel.de,https://www.volkswagen.de/de/haendler-werkstatt/autohaus-reckziegel-harpstedt.html,52.90185,8.56584
Autohaus Manz GmbH,"Böttgerstraße 50 , 92521 Schwarzenfeld",+49 9435 791,+49 9435 3289,info@autohaus-manz.de,https://www.volkswagen.de/de/haendler-werkstatt/autohaus-manz-schwarzenfeld.html,49.3909,12.12716
Autohaus Gebr. Schwarte Cloppenburg GmbH,"Emsteker Straße 75 , 49661 Cloppenburg",+49 4471 91730,+49 4471 917320,schwarte.cloppenburg@nowag.com,https://www.volkswagen.de/de/haendler-werkstatt/autohaus-gebr-schwarte-cloppenburg.html,52.84212,8.06025
Autohaus Illgen GmbH,"Zwönitzer Straße 10 b , 09366 Stollberg",+49 37296 7250,+49 37296 72550,info@autohaus-illgen.de,https://www.volkswagen.de/de/haendler-werkstatt/autohaus-illgen-stollberg.html,50.70701,12.78533
Walter Heisig Inh. Helmuth Heisig,"Uelzener Straße 12 , 29378 Wittingen",+49 5831 29110,+49 5831 1352,info@autohaus-heisig.de,https://www.volkswagen.de/de/haendler-werkstatt/autohaus-walter-heisig-wittingen.html,52.734596,10.736366
Hugo Kleinmann GmbH u. Co. KG,"Zollernstraße 54 , 72379 Hechingen",+49 7471 93400,+49 7471 934024,peter.sickinger@autohaus-kleinmann.de,https://www.volkswagen.de/de/haendler-werkstatt/autohaus-kleinmann-hechingen.html,48.33988,8.95728
Held & Ströhle GmbH & Co. KG,"Schillerstraße 5a , 89077 Ulm",+49 731 15250,+49 731 1525202,info@held-stroehle.de,https://www.volkswagen.de/de/haendler-werkstatt/held-stroehle-ulm.html,48.395737,9.981409
Autohaus Prüller e. K.,"Am Schwalbanger 39 , 86633 Neuburg",+49 8431 676770,+49 8431 676777,info-vw@autohaus-prueller.de,https://www.volkswagen.de/de/haendler-werkstatt/autohaus-prueller-neuburg.html,48.725872,11.1914
Autohaus Neuling GmbH & Co. KG,"Poppauer Straße 37 , 38486 Klötze",+49 3909 4606,+49 3909 4607,info@autohaus-neuling.de,https://www.volkswagen.de/de/haendler-werkstatt/autohaus-neuling-kloetze.html,52.63288,11.15641
Autohaus Wandler GmbH & Co. KG,"Paterbusch 2 , 27374 Visselhövede",+49 4262 30900,+49 4262 309010,AH.Wandler@t-online.de,https://www.volkswagen.de/de/haendler-werkstatt/autohaus-wandler-visselhoevede.html,52.97526,9.54927
Autohaus Liemert e.K.,"Grimmaische Straße 50 , 04680 Colditz",+49 34381 8140,+49 34381 81413,info@autohaus-liemert.de,https://www.volkswagen.de/de/haendler-werkstatt/autohaus-liemert-colditz.html,51.13611,12.79211
Hotz Automobile Gardelegen GmbH,"An der Breiten Gehre 5 , 39638 Gardelegen",+49 3907 72220,+49 3907 722233,ga-info@hotz-gardelegen.de,https://www.volkswagen.de/de/haendler-werkstatt/hotz-automobile-gardelegen.html,52.53928,11.40883
Auto-Zentrum Priebe e. K.,"Soltauer Straße 11-13 , 27374 Visselhövede",+49 4262 955680,+49 4262 9556816,info@az-priebe.de,https://www.volkswagen.de/de/haendler-werkstatt/auto-zentrum-priebe-visselhoevede.html,52.99079,9.58916
AUTO POINT GmbH,"Neefestraße 90 , 09116 Chemnitz",+49 371 369970,+49 371 3699741,info@auto-point-chemnitz.de,https://www.volkswagen.de/de/haendler-werkstatt/auto-point-chemnitz-chemnitz.html,50.81826,12.88649
Autohaus in Wurzen Zweigniederlassung der Autohaus im Geiseltal GmbH,"Schiemannstraße 2 , 04808 Wurzen",+49 3425 90890,+49 3425 908989,info.wurzen@geiseltalgruppe.de,https://www.volkswagen.de/de/haendler-werkstatt/autohaus-in-wurzen.html,51.38469,12.73914
Autohaus Köpf GmbH,"Thannhauser Straße 14 , 89365 Röfingen",+49 8222 40950,+49 8222 409526,info@autohaus-koepf.de,https://www.volkswagen.de/de/haendler-werkstatt/autohaus-koepf-roefingen.html,48.42232,10.44204
Autohaus Brandt Stuhr GmbH,"Max-Planck-Straße 3 , 28816 Stuhr",+49 421 565400,+49 421 56540730,stuhr@autohaus-brandt.com,https://www.volkswagen.de/de/haendler-werkstatt/autohaus-brandt-stuhr.html,53.02161,8.76682
Karl-Heinz Diekow GmbH & Co. KG,"Friedrich-Ebert-Straße 66 , 85055 Ingolstadt",+49 841 954600,+49 841 25655,service@ah-diekow.de,https://www.volkswagen.de/de/haendler-werkstatt/autohaus-diekow-ingolstadt.html,48.77433,11.44357
Grossmann GmbH & Co. KG,"Austraße 51 - 53 , 78727 Oberndorf am Neckar",+49 7423 920050,,info@autohaus-grossmann.de,https://www.volkswagen.de/de/haendler-werkstatt/autohaus-grossmann-oberndorf-am-neckar.html,48.28013,8.59161
Autohaus Neustadt Schmidt + Koch GmbH,"Neuenlander Straße 440 , 28201 Bremen",+49 421 87100,+49 421 8710123,neu@schmidt-und-koch.de,https://www.volkswagen.de/de/haendler-werkstatt/autohaus-neustadt-schmidt-koch-bremen.html,53.04889,8.81773
Plaschka Munster GmbH & Co. KG,"Wagnerstraße 10-18 , 29633 Munster",+49 5192 98880,+49 5192 988852,info@autohaus-plaschka.de,https://www.volkswagen.de/de/haendler-werkstatt/plaschka-munster.html,52.991478,10.099767
Autohaus Allgeier GmbH,"Ahfeldstraße 2 , 77781 Biberach",+49 7835 63960,+49 7835 639625,info@vw-allgeier.de,https://www.volkswagen.de/de/haendler-werkstatt/autohaus-allgeier-biberach.html,48.33488,8.03151
Automobile Werner Handel und Service GmbH,"Chemnitzer Straße 32 a-b , 09648 Mittweida",+49 3727 6210100,+49 3727 6210190,volkswagen@automobile-werner.de,https://www.volkswagen.de/de/haendler-werkstatt/automobile-werner-handel-und-service-mittweida.html,50.97428,12.98147
Autohaus Seifert GmbH,"Gewerbering 1 , 09456 Annaberg-Buchholz",+49 3733 56650,+49 3733 566599,info@vw-seifert.de,https://www.volkswagen.de/de/haendler-werkstatt/autohaus-seifert-annaberg-buchholz.html,50.59692,13.01956
Autohaus Schmidt + Koch GmbH,"Brauer Straße 43 - 47 , 27356 Rotenburg",+49 4261 98090,+49 4261 980911,rot@schmidt-und-koch.de,https://www.volkswagen.de/de/haendler-werkstatt/autohaus-schmidt-koch-rotenburg.html,53.099987,9.401198
Automobile Dittmar Mäke GmbH & Co. KG Waldheim,"Mendener Weg 1 , 04736 Waldheim",+49 34327 9600,+49 34327 96017,waldheim@autohaus-maeke.de,https://www.volkswagen.de/de/haendler-werkstatt/autohaus-dittmar-maeke-waldheim.html,51.08233,12.99594
Autohaus Hesse GmbH & Co. KG,"Bremer Straße 40 , 27367 Sottrum",+49 4264 83100,+49 4264 831040,info@autohaus-hesse.de,https://www.volkswagen.de/de/haendler-werkstatt/autohaus-hesse-sottrum.html,53.113304,9.228697
Autohaus Weider u. Sohn GmbH,"Hohweg 7 , 28219 Bremen",+49 421 388990,+49 421 3889928,info@auto-weider.de,https://www.volkswagen.de/de/haendler-werkstatt/autohaus-weider-u-sohn-bremen.html,53.107307,8.796962
Autohaus Lacher GmbH & Co. KG,"Böhmerwaldstraße 2 , 93149 Nittenau",+49 9436 3010110,+49 9436 3010190,info@lacher-automobile.de,https://www.volkswagen.de/de/haendler-werkstatt/autohaus-lacher-nittenau.html,49.210766,12.284165
Autohaus Wolter GmbH,"Oldenstädter Straße 54 , 29525 Uelzen",+49 581 9070100,+49 581 9070101,vw.uelzen@maz-gruppe.de,https://www.volkswagen.de/de/haendler-werkstatt/volkswagen-zentrum-uelzen.html,52.96728,10.57566
Auto Höss GmbH,"Augsburger Straße 21 , 86424 Dinkelscherben",+49 8292 1001,+49 8292 1000,info@autohoess.com,https://www.volkswagen.de/de/haendler-werkstatt/auto-hoess-dinkelscherben.html,48.34801,10.59489
Autohaus Seitz GmbH,"Siemensstraße 1 , 89257 Illertissen",+49 7303 96900,,,https://www.volkswagen.de/de/haendler-werkstatt/autohaus-seitz-illertissen.html,48.23187,10.10321
AZA Auto Jannink GmbH,"Grüner Hof 9 , 26169 Friesoythe",+49 4491 92500,+49 4491 925050,info@auto-jannink.de,https://www.volkswagen.de/de/haendler-werkstatt/aza-auto-jannink-friesoythe.html,53.02487,7.86412
Autohaus Faust GmbH,"Annendorfer Straße 101 , 06886 Luth. Wittenberg",+49 3491 40860,+49 3491 408626,info@faust-group.de,https://www.volkswagen.de/de/haendler-werkstatt/autohaus-faust-luth-wittenberg.html,51.88239,12.65301
Autohaus Baumer Abensberg GmbH & Co. KG,"Max-Bronold-Straße 3 , 93326 Abensberg",+49 9443 91040,+49 9443 910420,info@autohaus-baumer.de,https://www.volkswagen.de/de/haendler-werkstatt/autohaus-baumer-abensberg-abensberg.html,48.8146,11.849495
Autohaus Hirth GmbH,"Mügelner Straße 2 , 04769 Mügeln",+49 34362 4030,+49 34362 40320,info@autohaushirth.de,https://www.volkswagen.de/de/haendler-werkstatt/autohaus-hirth-muegeln.html,51.237328,13.070904
Autohaus Stülpner & Kaden,"Abrahamschacht 9 , 09496 Marienberg",+49 3735 6090680,+49 3735 6090689,,https://www.volkswagen.de/de/haendler-werkstatt/autohaus-stuelpner-kaden-marienberg.html,50.658836,13.158959
Autohaus Döbeln GmbH,"Rosa-Luxemburg-Straße 1 a , 04720 Döbeln",+49 3431 71800,+49 3431 718012,info@autohaus-doebeln.de,https://www.volkswagen.de/de/haendler-werkstatt/autohaus-doebeln-doebeln.html,51.12091,13.11589
Franz Xaver Metzner e. K. Inh. Anja Feil,"Gellertstraße 14 , 86157 Augsburg",+49 821 523315,+49 821 541260,info.metzner@metzner.vapn.de,https://www.volkswagen.de/de/haendler-werkstatt/autohaus-franz-xaver-metzner-augsburg.html,48.36112,10.87
Auto-Center Torgau GmbH,"Gewerbering 5 , 04860 Torgau",+49 3421 72240,+49 3421 722420,info@vw-torgau.de,https://www.volkswagen.de/de/haendler-werkstatt/auto-center-torgau.html,51.557384,12.967337
Autohaus Lampe GmbH,"Lange Straße 71 , 27804 Berne",+49 4406 93920,+49 4406 939299,m.drieling@autohaus-lampe.de,https://www.volkswagen.de/de/haendler-werkstatt/autohaus-lampe-berne.html,53.18208,8.48258
Autohaus Warncke GmbH,"Bremer Landstraße 4 , 27412 Tarmstedt",+49 4283 8910,+49 4283 89150,info@autohaus-warncke.de,https://www.volkswagen.de/de/haendler-werkstatt/autohaus-warncke-tarmstedt.html,53.222797,9.076133
"Jepsen Automobile, Zweigbetrieb der Jepsen Betriebs GmbH & Co. KG","Rosenhofer Straße 2a , 93073 Neutraubling",+49 9401 93980,+49 9401 9398111,info.skoda@jepsen-automobile.de,https://www.volkswagen.de/de/haendler-werkstatt/autohaus-jepsen-neutraubling.html,48.98952,12.2198
Autohaus Kock GmbH & Co. KG,"Hauptstraße 2 , 26188 Edewecht",+49 4405 92400,+49 4405 924039,info@aza-edewecht.de,https://www.volkswagen.de/de/haendler-werkstatt/autohaus-kock-edewecht.html,53.13868,7.98892
Autohaus Klaiber GmbH,"Steigäcker 4 , 78582 Balgheim",+49 7424 95700,+49 7424 957022,info@auto-klaiber.de,https://www.volkswagen.de/de/haendler-werkstatt/autohaus-klaiber-balgheim.html,48.06328,8.7667265
Auto Leitz GmbH,"Chamer Straße 49 , 93426 Roding",+49 9461 9138870,+49 9461 91388733,info-roding@auto-leitz.vapn.de,https://www.volkswagen.de/de/haendler-werkstatt/auto-leitz-roding.html,49.19974,12.52349
Autohaus Moll GmbH,"Waldseer Straße 151 - 157 , 88400 Biberach",+49 7351 34800,+49 7351 348034,info@autohaus-moll.com,https://www.volkswagen.de/de/haendler-werkstatt/autohaus-moll-biberach.html,48.079754,9.805808
Dinkel + Heiny GmbH,"Industriestraße 21 , 79341 Kenzingen",+49 7644 926970,+49 7644 9269720,info@dinkel-heiny.de,https://www.volkswagen.de/de/haendler-werkstatt/dinkel-heiny-kenzingen.html,48.20245,7.76791
AZA Autozentrale Ammerland GmbH,"Bertha-Benz-Straße 10 , 26160 Bad Zwischenahn",+49 4403 62520,+49 4403 625252,info@aza-zentrale.de,https://www.volkswagen.de/de/haendler-werkstatt/aza-autozentrale-ammerland-bad-zwischenahn.html,53.18274,8.07178
Autohaus Knaller GmbH & Co. KG,"Haunstetter Straße 75 , 86343 Königsbrunn",+49 8231 96200,+49 8231 962051,info@autohaus-knaller.de,https://www.volkswagen.de/de/haendler-werkstatt/autohaus-knaller-koenigsbrunn.html,48.28333,10.89395
Autohaus Uhl GmbH,"Herbertinger Straße 33 , 88348 Bad Saulgau",+49 7581 50900,+49 7581 509080,info@vw-uhl.de,https://www.volkswagen.de/de/haendler-werkstatt/autohaus-uhl-bad-saulgau.html,48.020294,9.492635
Franke Automobile GmbH & Co. KG,"Brander Straße 71 , 09599 Freiberg",+49 3731 678100,+49 3731 678150,vw@franke-auto.de,https://www.volkswagen.de/de/haendler-werkstatt/franke-automobile-freiberg.html,50.90171,13.33701
K & E Automobile GmbH,"Sandkamp 2 , 26842 Ostrhauderfehn",+49 4952 826633,+49 4952 8266350,,https://www.volkswagen.de/de/haendler-werkstatt/k-e-automobile-ostrhauderfehn.html,53.13616,7.60048
Autohaus Früchtl GmbH,"Am Lauser 1 , 93102 Pfatter",+49 9481 943840,+49 9481 94811628,info@autohaus-fruechtl.de,https://www.volkswagen.de/de/haendler-werkstatt/autohaus-fruechtl-pfatter.html,48.95876,12.36933
Autohaus Lang GmbH,"Max-von-Müller-Straße 57 , 84056 Rottenburg",+49 8781 94440,+49 8781 944421,info@vw-lang.de,https://www.volkswagen.de/de/haendler-werkstatt/autohaus-lang-rottenburg.html,48.710384,12.01698
Emil Schmolck GmbH,"Am Elzdamm 2 , 79312 Emmendingen",+49 7641 4602500,+49 7641 46028500,service03@schmolck.de,https://www.volkswagen.de/de/haendler-werkstatt/autohaus-emil-schmolck-emmendingen.html,48.111275,7.851964
Autohaus Hoppe + Oppotsch GmbH,"Gut Rehorn 2 , 26180 Rastede",+49 4402 7222,+49 4402 7242,info@hoppe-oppotsch.de,https://www.volkswagen.de/de/haendler-werkstatt/autohaus-hoppe-oppotsch-rastede.html,53.27112,8.17222
Peter Kandziorra KG,"Am Roten Brühl 2 , 79211 Denzlingen",+49 7666 900090,+49 7666 9000999,Ralf.Kandziorra@kandziorra.de,https://www.volkswagen.de/de/haendler-werkstatt/autohaus-kandziorra-denzlingen.html,48.07928,7.87724
Erich Röll GmbH,"Am Sieltief 2 , 26919 Brake",+49 4401 93410,+49 4401 934120,claudia.rahlke@autohaus-roell.de,https://www.volkswagen.de/de/haendler-werkstatt/autohaus-erich-roell-brake.html,53.3317,8.4576
Autohaus Hartl GmbH,"Robert-Koch-Straße 1 , 85391 Allershausen",+49 8166 8051,+49 8166 8331,info@autohaus-hartl.com,https://www.volkswagen.de/de/haendler-werkstatt/autohaus-hartl-allershausen.html,48.42992,11.5915
Autohaus Moser GmbH,"Rugetsweiler Straße 1 , 88326 Aulendorf",+49 7525 924010,+49 7525 9240120,philipp.moser@ah-moser.de,https://www.volkswagen.de/de/haendler-werkstatt/autohaus-moser-aulendorf.html,47.94413,9.64326
Autohaus Kühne GmbH,"An den Steinenden 4 , 04916 Herzberg",+49 3535 40160,+49 3535 401616,herzberg@vw-kuehne.de,https://www.volkswagen.de/de/haendler-werkstatt/autohaus-kuehne-herzberg.html,51.676853,13.226683
Autohaus Barghorn GmbH,"Vareler Straße 32 , 26349 Jade",+49 4454 368,+49 4454 8200,info@autohaus-barghorn.de,https://www.volkswagen.de/de/haendler-werkstatt/autohaus-barghorn-jade.html,53.34013,8.18627
Autohaus Gehlert GmbH & Co.KG,"Tullastraße 82 , 79108 Freiburg",+49 761 510460,+49 761 5104652,info@gehlert.de,https://www.volkswagen.de/de/haendler-werkstatt/volkswagen-zentrum-freiburg.html,48.02907,7.8434725
Dannacker & Laudien GmbH,"Schlossring 48 , 21423 Winsen",+49 4171 7970,+49 4171 797600,vw.winsen@maz-gruppe.de,https://www.volkswagen.de/de/haendler-werkstatt/wolperding-automobile-winsen.html,53.356956,10.20227
Autohaus Gebr. Schwarte Leer GmbH,"Hauptstraße 79 , 26789 Leer",+49 491 977777,+49 491 9777766,schwarte.leer@nowag.com,https://www.volkswagen.de/de/haendler-werkstatt/autohaus-gebr-schwarte-leer.html,53.23525,7.477661
Autohaus Am Tannenkamp GmbH & Co. KG,"Am Tannenkamp 91 , 26316 Varel",+49 4451 91100,+49 4451 911050,info@am-tannenkamp.de,https://www.volkswagen.de/de/haendler-werkstatt/autohaus-am-tannenkamp-varel.html,53.36878,8.1271
Autohaus Knoller GmbH & Co. KG,"Fürstenfeldbrucker Straße 18 , 82272 Moorenweis",+49 8146 220,+49 8146 1553,info@autohaus-knoller.de,https://www.volkswagen.de/de/haendler-werkstatt/autohaus-knoller-moorenweis.html,48.15457,11.08271
Autohaus Willi Klaus GmbH,"Gewerbering 2 , 14913 Jüterbog",+49 3372 41880,+49 3372 418820,info@autohaus-klaus.de,https://www.volkswagen.de/de/haendler-werkstatt/autohaus-willi-klaus-jueterbog.html,52.004578,13.085724
Autohaus Wulf GmbH & Co. KG,"Leopoldsbrunnen 11a , 19303 Dömitz",+49 38758 24077,+49 38758 24067,info@auto-wulf.de,https://www.volkswagen.de/de/haendler-werkstatt/autohaus-wulf-doemitz.html,53.13357,11.28191
bhg Autohandelsgesellschaft mbH,"Lörracher Straße 4 , 79115 Freiburg",+49 761 49020,,vw-freiburg@bhg-mobile.de,https://www.volkswagen.de/de/haendler-werkstatt/bhg-autohandelsgesellschaft-freiburg.html,47.98428,7.82751
Auto & Service PIA GmbH,"Lechwiesenstraße 54 , 86899 Landsberg",+49 8191 91780,+49 8191 917840,info.landsberg@autoundservice.de,https://www.volkswagen.de/de/haendler-werkstatt/auto-service-pia-landsberg.html,48.06924,10.85973
Autohaus Elitzsch GmbH,"Dresdner Straße 121 , 01640 Coswig",+49 3523 77020,+49 3523 75850,info-cos@auto-elitzsch.de,https://www.volkswagen.de/de/haendler-werkstatt/autohaus-elitzsch-coswig.html,51.12687,13.56034
Autohaus Christl & Schowalter GmbH & Co. KG,"Haggertystraße 8 , 85356 Freising",+49 8161 99990,+49 8161 999980,info@christl-schowalter.de,https://www.volkswagen.de/de/haendler-werkstatt/autohaus-christl-schowalter-freising.html,48.39648,11.77137
Anton Schmidinger OHG,"Ravensburger Straße 54 , 88368 Bergatreute",+49 7527 92120,+49 7527 921229,info@autohaus-schmidinger.de,https://www.volkswagen.de/de/haendler-werkstatt/anton-schmidinger-bergatreute.html,47.85165,9.74413
Karl-Heinz Timmann GmbH,"Süderquerweg 651 , 21037 Hamburg",+49 40 7375020,+49 40 73750226,info@autohaus-timmann.com,https://www.volkswagen.de/de/haendler-werkstatt/autohaus-timmann-hamburg.html,53.42063,10.146139
Autohaus Braun GmbH & Co.,"Landshuter Straße 133 , 85368 Moosburg",+49 8761 66760,+49 8761 60846,info@ah-braun.de,https://www.volkswagen.de/de/haendler-werkstatt/autohaus-braun-moosburg.html,48.46742,11.95724
Autohaus Wilhelm Neustadt e.K. Inh. Frank Neustadt,"Westbogen 2 , 04910 Elsterwerda",+49 3533 51910,+49 3533 519116,info@neustadt-automobile.de,https://www.volkswagen.de/de/haendler-werkstatt/autohaus-wilhelm-neustadt-elsterwerda.html,51.46662,13.496
Autohaus Ernst Hahn GmbH,"Hauptstraße 37 , 88662 Überlingen",+49 7553 352,+49 7553 1497,ernst.hahn@autohaushahn.de,https://www.volkswagen.de/de/haendler-werkstatt/autohaus-ernst-hahn-ueberlingen.html,47.80262,9.23815
Autoforum Landshut GmbH,"Industriestraße 34 , 84030 Ergolding",+49 871 962620,+49 871 9626213,info@autoforum-landshut.de,https://www.volkswagen.de/de/haendler-werkstatt/autoforum-landshut-ergolding.html,48.55918,12.15792
Volkswagen Automobile Hamburg GmbH,"Großmoorbogen 1a , 21079 Hamburg",+49 40 766070,+49 40 76607103,info@volkswagen-hamburg.de,https://www.volkswagen.de/de/haendler-werkstatt/volkswagen-automobile-hamburg-grossmoorbogen.html,53.4625,10.012562
Autohaus Kurt Biller GmbH & Co. KG,"Hafnerhöhe 3 , 94234 Viechtach",+49 9942 94020,+49 9942 940299,viechtach@autohaus-biller.de,https://www.volkswagen.de/de/haendler-werkstatt/autohaus-kurt-biller-viechtach.html,49.07303,12.89057
Gohm + Graf Hardenberg GmbH,"Abigstraße 2 , 88662 Überlingen",+49 7551 80950,+49 7551 809555,info.ueb@grafhardenberg.de,https://www.volkswagen.de/de/haendler-werkstatt/gohm-graf-hardenberg-ueberlingen.html,47.77212,9.18665
Autohaus Luckenwalde GmbH,"Brandenburger Straße 36 , 14943 Luckenwalde",+49 3371 406610,+49 3371 406611,info@autohaus-luckenwalde.de,https://www.volkswagen.de/de/haendler-werkstatt/autohaus-luckenwalde-luckenwalde.html,52.094242,13.164449
Autohaus Krüger GmbH,"Norsinger Straße 12 , 79189 Bad Krozingen",+49 7633 92690,+49 7633 16809,info@autohauskrueger.de,https://www.volkswagen.de/de/haendler-werkstatt/autohaus-krueger-bad-krozingen.html,47.924164,7.706912
Emil Frey Küstengarage GmbH,"Curslacker Neuer Deich 72 , 21029 Hamburg",+49 40 725610,+49 40 7256139,Info.hamburg@kuestengarage.de,https://www.volkswagen.de/de/haendler-werkstatt/emil-frey-kuestengarage-hamburg.html,53.47639,10.20592
Autohaus Fähndrich GmbH,"Im Ösch 8 , 88299 Leutkirch",+49 7561 2300,+49 7561 7575,info@autohaus-faehndrich.de,https://www.volkswagen.de/de/haendler-werkstatt/autohaus-faehndrich-leutkirch.html,47.79632,10.01602
Autohaus Wagner GmbH & Co. KG,"Hauptstraße 1 , 82211 Herrsching/Breitbrunn",+49 8152 98870,+49 8152 988729,autohaus.wagner@autohaus-wagner.info,https://www.volkswagen.de/de/haendler-werkstatt/autohaus-wagner-herrsching-breitbrunn.html,48.03491,11.13539
Schmidt + Koch GmbH,"Stresemannstraße 122 , 27576 Bremerhaven",+49 471 5940,+49 471 59447,BHV@schmidt-und-koch.de,https://www.volkswagen.de/de/haendler-werkstatt/schmidt-koch-bremerhaven.html,53.55656,8.593464
Autohaus Kurt Biller e. K.,"Lamer Straße 17 , 93470 Lohberg",+49 9943 708,+49 9943 1332,post@autohaus-biller.de,https://www.volkswagen.de/de/haendler-werkstatt/autohaus-kurt-biller-lohberg.html,49.1699,13.09265
Autohaus Manikowski GmbH & Co. KG,"Van-Heukelum-Straße 13-15 , 27568 Bremerhaven",+49 471 954980,,bremerhaven@manikowski.de,https://www.volkswagen.de/de/haendler-werkstatt/autohaus-manikowski-bremerhaven.html,53.563488,8.5746565
Adrian Glöckner Automobile GmbH,"Dohnaer Straße 103 a , 01219 Dresden",+49 351 404280,+49 351 4042830,info@gloeckner-automobile.de,https://www.volkswagen.de/de/haendler-werkstatt/adrian-gloeckner-automobile-dresden.html,51.01394,13.77413
Autohaus Wildi OHG,"Riedstraße 4 , 88677 Markdorf",+49 7544 95150,+49 7544 951521,info@auto-wildi.de,https://www.volkswagen.de/de/haendler-werkstatt/autohaus-wildi-ohg-markdorf.html,47.716785,9.396539
Autohaus Müller OHG,"Dobberziner Straße 111 , 19348 Perleberg",+49 3876 79160,+49 3876 614524,marko.mueller@de759060.vapn.de,https://www.volkswagen.de/de/haendler-werkstatt/autohaus-mueller-perleberg.html,53.07615,11.87341
Autohaus Tack,"Petkumer Straße 223 , 26725 Emden",+49 4921 51361,+49 4921 56787,autohaustack@web.de,https://www.volkswagen.de/de/haendler-werkstatt/autohaus-tack-emden.html,53.34571,7.22323
Autohaus Westend Gossler GmbH & Co. KG,"Westendstraße 219 , 80686 München",+49 89 5783730,+49 89 57837360,info@autohaus-westend.de,https://www.volkswagen.de/de/haendler-werkstatt/autohaus-westend-gossler-muenchen.html,48.131035,11.519479
Autohaus Ressle e. K.,"Hauptstraße 10 , 86934 Ludenhausen",+49 8194 932160,+49 8194 932180,info@autohaus-ressle.de,https://www.volkswagen.de/de/haendler-werkstatt/autohaus-ressle-ludenhausen.html,47.93464,10.96189
Autohaus Hunzinger GmbH,"Bundesstraße 3 , 79426 Buggingen",+49 7634 550990,+49 7634 5509955,buchhaltung@autohaus-hunzinger.de,https://www.volkswagen.de/de/haendler-werkstatt/autohaus-hunzinger-buggingen.html,47.8587,7.63907
Autohaus Hans Maier Neufinsing GmbH,"Erdinger Straße 10a , 85464 Neufinsing",+49 8121 7720,+49 8121 772199,info-nf@autohaus-maier.de,https://www.volkswagen.de/de/haendler-werkstatt/autohaus-hans-maier-neufinsing.html,48.22244,11.80377
IKR Richter Mobility GmbH,"Finsterwalder Straße 1-5 , 01979 Lauchhammer",+49 3574 78000,+49 3574 780039,mobility@ikr-richter.com,https://www.volkswagen.de/de/haendler-werkstatt/ikr-richter-mobility-lauchhammer.html,51.4755,13.73634
Hans Jürgen Osterkamp GmbH,"Auricher Straße 210 , 26721 Emden",+49 4921 94410,,info@osterkamp.vapn.de,https://www.volkswagen.de/de/haendler-werkstatt/autohaus-hans-juergen-osterkamp-emden.html,53.38955,7.2082
Autohaus Oskar Bleicher GmbH & Co. KG,"Ravensburger Straße 25 - 27 , 88046 Friedrichshafen",+49 7541 70750,+49 7541 707533,info@autohaus-bleicher.de,https://www.volkswagen.de/de/haendler-werkstatt/autohaus-oskar-bleicher-friedrichshafen.html,47.659813,9.49848
Autohaus Gebr. Schwarte Aurich GmbH,"Emder Straße 31 , 26607 Aurich",+49 4941 15100,+49 4941 15155,schwarte.aurich@nowag.com,https://www.volkswagen.de/de/haendler-werkstatt/autohaus-gebr-schwarte-aurich.html,53.471188,7.46308
Autohaus Anton Ortner GmbH & Co. KG,"Gautinger Straße 5 , 82319 Starnberg",+49 8151 650510,+49 8151 6505140,starnberg@ortner-gruppe.de,https://www.volkswagen.de/de/haendler-werkstatt/autohaus-anton-ortner-starnberg.html,48.0041,11.34955
MAHAG Automobilhandel und Service GmbH & Co. oHG,"Wasserburger Landstraße 7 , 81825 München",+49 89 4200020,+49 89 42000230,info.trudering@mahag.de,https://www.volkswagen.de/de/haendler-werkstatt/mahag-muenchen-trudering.html,48.121174,11.666467
Autohaus Armin Adler GmbH & Co. KG,"Ottendorf Nr. 10 , 01819 Bahretal (OT Ottendorf)",+49 35025 5600,+49 35025 56020,ah.adler@adler.vapn.de,https://www.volkswagen.de/de/haendler-werkstatt/autohaus-armin-adler-bahretal.html,50.89854,13.917079
Autohof Reimers GmbH,"Stawedder 17-21 , 25462 Rellingen",+49 4101 49080,+49 4101 490895,rellingen@autohof-reimers.de,https://www.volkswagen.de/de/haendler-werkstatt/autohof-reimers-rellingen.html,53.645992,9.832524
AVP Autoland GmbH & Co. KG,"Dr.-Wandinger-Straße 7 , 94447 Plattling",+49 9931 7090,+49 9931 709519,plattling@avp-autoland.de,https://www.volkswagen.de/de/haendler-werkstatt/avp-autoland-plattling.html,48.78426,12.849464
Autohaus Franke GmbH & Co. KG Radeberg,"An der Ziegelei 11 , 01454 Radeberg",+49 3528 48200,+49 3528 482050,radeberg@autohaus-franke.com,https://www.volkswagen.de/de/haendler-werkstatt/autohaus-franke-radeberg.html,51.129513,13.913274
Autohaus Hildesheim GmbH & Co. KG,"Wöbbeliner Straße 90 , 19288 Ludwigslust",+49 3874 42520,+49 3874 29024,info@autohaus-hildesheim.de,https://www.volkswagen.de/de/haendler-werkstatt/autohaus-hildesheim-ludwigslust.html,53.335857,11.495805
Autohaus Schubnell OHG,"Bundesstraße 60 , 79669 Zell-Atzenbach",+49 7625 515,,info@autohaus-schubnell.de,https://www.volkswagen.de/de/haendler-werkstatt/autohaus-schubnell-ohg-zell-atzenbach.html,47.71604,7.87401
Autohaus Egon Schumacher GmbH & Co. KG,"Speckenstraße 54 , 27639 Wurster Nordseeküste",+49 4742 423,+49 4742 8942,m.vogel@schumacher-dorum.de,https://www.volkswagen.de/de/haendler-werkstatt/autohaus-egon-schumacher-wurster-nordseekueste.html,53.68751,8.57859
Petschallies Poppenbüttel GmbH,"Poppenbüttler Hauptstraße 13 , 22399 Hamburg",+49 40 6068800,+49 40 60688055,poppenbuettel@petschallies.de,https://www.volkswagen.de/de/haendler-werkstatt/petschallies-poppenbuettel-hamburg.html,53.66224,10.0869
Stoll GmbH,"Porschestraße 1 , 79761 Waldshut-Tiengen",+49 7741 60000,+49 7741 600021,tiengen@stoll-automotive.de,https://www.volkswagen.de/de/haendler-werkstatt/autohaus-stoll-waldshut-tiengen.html,47.62963,8.26765
Autohaus Heuberger GmbH Niederlassung Bernbeuren,"Schongauer Straße 14 , 86975 Bernbeuren",+49 8860 91920,+49 8860 919210,mail@autohaus-heuberger.de,https://www.volkswagen.de/de/haendler-werkstatt/autohaus-heuberger-niederlassung-bernbeuren.html,47.74046,10.77927
Autohaus Franke GmbH & Co. KG Pulsnitz,"Kamenzer Straße 10 , 01896 Pulsnitz",+49 35955 4870,+49 35955 48750,pulsnitz@autohaus-franke.com,https://www.volkswagen.de/de/haendler-werkstatt/autohaus-franke-pulsnitz.html,51.1872,14.014838
Autohaus Tiedemann GmbH & Co. KG,"Otto-Hahn-Straße 5 , 25337 Elmshorn",+49 4121 261290,+49 4121 26129203,service@autohaus-tiedemann.de,https://www.volkswagen.de/de/haendler-werkstatt/autohaus-tiedemann-elmshorn.html,53.7458,9.68769
Ing. W. Riemer GmbH & Co. KG,"Alt-Möllner-Str. 14-18 , 23879 Mölln",+49 4542 80900,+49 4542 809025,info@riemer-moelln.de,https://www.volkswagen.de/de/haendler-werkstatt/autohaus-ing-w-riemer-moelln.html,53.62425,10.6801
BaderMainzl GmbH & Co. KG,"Hans-Urmiller-Ring 40 , 82515 Wolfratshausen",+49 8171 1609100,+49 8171 1609191,service.wolfratshausen@autowelt-bader.de,https://www.volkswagen.de/de/haendler-werkstatt/badermainzl-wolfratshausen.html,47.90075,11.4286785
Autohaus Tröndle GmbH,"Gündenhausen 34 , 79650 Schopfheim",+49 7622 39900,+49 7622 399040,info@autohaus-troendle.de,https://www.volkswagen.de/de/haendler-werkstatt/autohaus-troendle-schopfheim.html,47.64711,7.809383
Autohaus Ebersberg GmbH & Co. KG,"Gewerbepark Nord-Ost 2 - 4 , 85560 Ebersberg",+49 8092 8291510,+49 8092 8291150,vw@autohaus-ebersberg.de,https://www.volkswagen.de/de/haendler-werkstatt/autohaus-ebersberg.html,48.09524,11.96527
Automobile Zossen GmbH,"Zülowstraße 1 , 15827 Blankenfelde-Mahlow OT Dahlewitz",+49 33708 5270,+49 33708 527299,,https://www.volkswagen.de/de/haendler-werkstatt/automobile-zossen-blankenfelde-mahlow.html,52.3178,13.44757
Autohaus Ursula Ott Inh. Karl-Heinz Büchelin,"Rheinstraße 23 , 79588 Efringen-Kirchen",+49 7628 942360,+49 7628 9423620,info@auto-ott.com,https://www.volkswagen.de/de/haendler-werkstatt/autohaus-ursula-ott-efringen-kirchen.html,47.68569,7.5228
Automobile Libera GmbH,"Säntisstr. 51 - 57 , 12277 Berlin",+49 30 7431041,+49 30 7433253,info@automobile-libera.de,https://www.volkswagen.de/de/haendler-werkstatt/automobile-libera-berlin.html,52.41908,13.38913
Friedrich Thiele OHG,"Sophie-Charlotten-Straße 7 , 14059 Berlin",+49 30 3267600,,,https://www.volkswagen.de/de/haendler-werkstatt/autohaus-friedrich-thiele-berlin.html,52.52147,13.2853565
Autohaus Karl Vetter GmbH,"Hauptstraße 70 , 27478 Cuxhaven",+49 4723 3320,+49 4723 4445,Autohaus.Karl.Vetter@T-Online.de,https://www.volkswagen.de/de/haendler-werkstatt/autohaus-vetter-cuxhaven.html,53.82065,8.66469
Autohaus Eihusen & Wilken GmbH & Co. KG,"Gewerbestraße 38 , 26506 Norden",+49 4931 93970,+49 4931 939744,norden@eihusen-wilken.de,https://www.volkswagen.de/de/haendler-werkstatt/autohaus-eihusen-wilken-norden.html,53.604965,7.1816254
bhg Autohandelsgesellschaft mbH Süd,"Wiesentalstraße 30 - 31 , 79540 Lörrach",+49 7621 15090,,vw-loerrach@bhg-mobile.de,https://www.volkswagen.de/de/haendler-werkstatt/bhg-autohandelsgesellschaft-loerrach.html,47.60472,7.65292
Seitz + Mayr GmbH + Co. KG,"Illerstraße 19 , 87527 Sonthofen",+49 8321 66560,+49 8321 665629,info@seitz-mayr.de,https://www.volkswagen.de/de/haendler-werkstatt/seitz-mayr-sonthofen.html,47.522446,10.263054
Gebr. Ahnefeld GmbH & Co. KG,"Schwarzer Weg 1 , 19370 Parchim",+49 3871 63100,+49 3871 631011,parchim@autohaus-ahnefeld.de,https://www.volkswagen.de/de/haendler-werkstatt/autohaus-ahnefeld-parchim.html,53.427788,11.8180065
Autohaus Jensen Wittstock GmbH,"Hamburger Straße 1 , 16909 Wittstock",+49 3394 404710,+49 3394 4047147,info@autohaus-wittstock.de,https://www.volkswagen.de/de/haendler-werkstatt/autohaus-jensen-wittstock.html,53.1571,12.45298
Michael Krammer,"Regener Straße 116 , 94513 Schönberg",+49 8554 944900,+49 8554 9449029,serviceanfrage@krammer-schoenberg.de,https://www.volkswagen.de/de/haendler-werkstatt/autohaus-michael-krammer-schoenberg.html,48.85177,13.32522
Senger Holstein GmbH,"Hamburger Straße 85 , 23843 Bad Oldesloe",+49 4531 89990,+49 4531 899999,info.bad-oldesloe@auto-senger.de,https://www.volkswagen.de/de/haendler-werkstatt/auto-senger-bad-oldesloe.html,53.80341,10.36276
Auto-Zellmann GmbH,"Rudower Straße 25 - 29 , 12524 Berlin",+49 30 6797210,+49 30 6733004,info@auto-zellmann.de,https://www.volkswagen.de/de/haendler-werkstatt/auto-zellmann-berlin.html,52.42281,13.52756
Hans Laatzig Automobile GmbH,"Eichhorster Weg 91 , 13435 Berlin",+49 30 4090030,+49 30 40398217,info@laatzig.de,https://www.volkswagen.de/de/haendler-werkstatt/hans-laatzig-automobile-berlin.html,52.602943,13.334898
Eskildsen GmbH & Co. KG,"Eddelaker Straße 131 , 25541 Brunsbüttel",+49 4852 6016,+49 4852 6291,info@eskildsen.sh,https://www.volkswagen.de/de/haendler-werkstatt/autohaus-eskildsen-brunsbuettel.html,53.90914,9.14267
Autohaus Otto Schwadtke e.K.,"Leibscher Hauptstraße 36 , 15910 Unterspreewald OT Leibsch",+49 35473 8880,+49 35473 692,info.LE@autohaus-schwadtke.de,https://www.volkswagen.de/de/haendler-werkstatt/autohaus-otto-schwadtke-unterspreewald.html,52.082413,13.87238
AWUS mobile GmbH & Co. KG,"Bremsweg 1 , 19057 Schwerin",+49 385 48030,+49 385 4803129,schwerin@awus-mobile.de,https://www.volkswagen.de/de/haendler-werkstatt/awus-mobile-schwerin.html,53.647434,11.351082
Autohaus Osterer GmbH,"Deggendorfer Straße 21 , 94535 Eging",+49 8544 970770,+49 8544 9707750,anfrage@autohaus-osterer.de,https://www.volkswagen.de/de/haendler-werkstatt/autohaus-osterer-eging.html,48.71463,13.2665
Autohaus Rinner GmbH,"Demmeljochstraße 50 , 83646 Bad Tölz",+49 8041 789510,+49 8041 789522,info@autohaus-rinner.de,https://www.volkswagen.de/de/haendler-werkstatt/autohaus-rinner-bad-toelz.html,47.749165,11.564963
Autohaus Lau GmbH,"Hauptstraße 110 , 23627 Groß Grönau",+49 4509 70700,+49 4509 707070,info@autohaus-lau.de,https://www.volkswagen.de/de/haendler-werkstatt/autohaus-lau-gross-groenau.html,53.813072,10.741937
Autohaus Weingärtner GmbH & Co. KG,"Tölzer Straße 15 , 83666 Waakirchen",+49 8021 88980,+49 8021 7490,info@autohaus-weingaertner.de,https://www.volkswagen.de/de/haendler-werkstatt/autohaus-weingaertner-waakirchen.html,47.7713,11.67209
VAAL Autohaus Lauermann GmbH,"Zittauer Straße 1a , 02689 Sohland",+49 35936 3190,+49 35936 31919,verkauf@auto-lauermann.de,https://www.volkswagen.de/de/haendler-werkstatt/vaal-autohaus-lauermann-sohland.html,51.055965,14.43081
Autohaus Weingärtner Miesbach GmbH & Co. KG,"Strass 1 , 83714 Miesbach",+49 8025 991810,+49 8025 9918119,info@autohaus-weingaertner.de,https://www.volkswagen.de/de/haendler-werkstatt/autohaus-weingaertner-miesbach.html,47.78217,11.832542
Autohaus Bautzen Ost GmbH,"Malschwitzer Straße 1 , 02625 Bautzen",+49 3591 21770,+49 3591 2177409,info@volkswagen-bautzen.de,https://www.volkswagen.de/de/haendler-werkstatt/autohaus-bautzen-ost.html,51.18922,14.453249
Ludwig Wallner GmbH,"Kufsteiner Straße 72 , 83026 Rosenheim",+49 8031 21810,+49 8031 2181111,info@volkswagen-rosenheim.de,https://www.volkswagen.de/de/haendler-werkstatt/ludwig-wallner-rosenheim.html,47.84618,12.123881
Autohaus Platzer & Wimmer GmbH,"Goldener Steig 40 , 94116 Hutthurm",+49 8505 90000,+49 8505 900080,Info@Platzer-Wimmer.de,https://www.volkswagen.de/de/haendler-werkstatt/platzer-wimmer-hutthurm.html,48.66701,13.48448
Autohaus Höhentinger GmbH,"Breiteicher Straße 30 , 83064 Raubling",+49 8035 9637660,+49 8035 96376637,a.h@vw-hoehentinger.de,https://www.volkswagen.de/de/haendler-werkstatt/autohaus-hoehentinger-raubling.html,47.80753,12.11646
Schmidt & Hoffmann Neumünster GmbH & Co.KG,"Altonaer Straße 111 , 24539 Neumünster",+49 4321 94940,+49 4321 43230,info@vw-nms.de,https://www.volkswagen.de/de/haendler-werkstatt/schmidt-hoffmann-neumuenster.html,54.06161,9.9833
Autotreff Hille GmbH,"J.-Andreas-Schubert-Straße15 , 02730 Ebersbach",+49 3586 300163,+49 3586 300165,auto-hille@t-online.de,https://www.volkswagen.de/de/haendler-werkstatt/autotreff-hille-ebersbach.html,50.99798,14.61563
Auto-Center Frankfurt(Oder) GmbH,"Auto-Focus 7 , 15517 Fürstenwalde",+49 3361 340308,+49 3361 340309,,https://www.volkswagen.de/de/haendler-werkstatt/auto-center-frankfurt-oder-fuerstenwalde.html,52.33736,14.0686
Autohaus Spree-Eck GmbH & Co. KG,"Auto-Focus 11 , 15517 Fürstenwalde",+49 3361 711110,+49 3361 711117,spree-eck@web.de,https://www.volkswagen.de/de/haendler-werkstatt/autohaus-spree-eck-fuerstenwalde.html,52.3369,14.0731
Autohaus Schlögl GmbH & Co. KG,"Trostberger Straße 1 + 3 , 83301 Traunreut",+49 8669 50910,+49 8669 509180,info@schloegl.de,https://www.volkswagen.de/de/haendler-werkstatt/autohaus-schloegl-traunreut.html,47.963326,12.610861
Autohaus Wallner GmbH & Co. KG,"Hauptstraße 23 , 83339 Chieming",+49 8664 208,+49 8664 496,info@autowallner.de,https://www.volkswagen.de/de/haendler-werkstatt/auto-wallner-chieming.html,47.89061,12.53698
Autohaus Ihle GmbH,"Itzehoer Straße 55 , 24589 Nortorf",+49 4392 91710,+49 4392 917140,info@ihle-nortorf.de,https://www.volkswagen.de/de/haendler-werkstatt/autohaus-ihle-nortorf.html,54.15819,9.85133
Autohaus Amsl Inh. Thomas Amsl,"Marktstraße 54 , 94107 Untergriesbach",+49 8593 90020,+49 8593 900249,service@amsl-autohaus.de,https://www.volkswagen.de/de/haendler-werkstatt/autohaus-amsl-untergriesbach.html,48.57289,13.67615
Osenstätter Kraftfahrzeuge GmbH,"Jahnstraße 42 , 83278 Traunstein",+49 861 988710,+49 861 9887199,info@vw-osenstaetter.de,https://www.volkswagen.de/de/haendler-werkstatt/osenstaetter-kraftfahrzeuge-traunstein.html,47.86771,12.631763
Autohaus Rausch GmbH & Co. KG,"Breslauer Straße 1 , 83313 Siegsdorf",+49 8662 9111,+49 8662 12857,autohaus.rausch@t-online.de,https://www.volkswagen.de/de/haendler-werkstatt/autohaus-rausch-siegsdorf.html,47.827316,12.635793
Autohaus Thomas Minnich GmbH & Co. KG,"Am Windmühlenberg 4 , 15320 Neuhardenberg",+49 33476 5980,+49 33476 5113,info@autohaus-minnich.de,https://www.volkswagen.de/de/haendler-werkstatt/autohaus-thomas-minnich-neuhardenberg.html,52.59113,14.230962
